[
  { "city": "Delhi", "state": "Delhi", "slug": "delhi", "lat": 28.6139, "lon": 77.2090, "aqi": 214, "pm25": 89.2, "pm10": 142.0, "primary_pollutant": "PM2.5", "updated_at": "2026-06-22T08:00:00Z" },
  { "city": "Mumbai", "state": "Maharashtra", "slug": "mumbai", "lat": 19.0760, "lon": 72.8777, "aqi": 147, "pm25": 51.3, "pm10": 98.0, "primary_pollutant": "PM10", "updated_at": "2026-06-22T08:00:00Z" },
  { "city": "Kolkata", "state": "West Bengal", "slug": "kolkata", "lat": 22.5726, "lon": 88.3639, "aqi": 178, "pm25": 64.1, "pm10": 119.0, "primary_pollutant": "PM2.5", "updated_at": "2026-06-22T08:00:00Z" },
  { "city": "Chennai", "state": "Tamil Nadu", "slug": "chennai", "lat": 13.0827, "lon": 80.2707, "aqi": 112, "pm25": 38.4, "pm10": 72.0, "primary_pollutant": "PM10", "updated_at": "2026-06-22T08:00:00Z" },
  { "city": "Bengaluru", "state": "Karnataka", "slug": "bangalore", "lat": 12.9716, "lon": 77.5946, "aqi": 98, "pm25": 32.1, "pm10": 61.0, "primary_pollutant": "PM10", "updated_at": "2026-06-22T08:00:00Z" },
  { "city": "Hyderabad", "state": "Telangana", "slug": "hyderabad", "lat": 17.3850, "lon": 78.4867, "aqi": 132, "pm25": 44.6, "pm10": 87.0, "primary_pollutant": "PM2.5", "updated_at": "2026-06-22T08:00:00Z" },
  { "city": "Ahmedabad", "state": "Gujarat", "slug": "ahmedabad", "lat": 23.0225, "lon": 72.5714, "aqi": 167, "pm25": 58.9, "pm10": 108.0, "primary_pollutant": "PM2.5", "updated_at": "2026-06-22T08:00:00Z" },
  { "city": "Pune", "state": "Maharashtra", "slug": "pune", "lat": 18.5204, "lon": 73.8567, "aqi": 121, "pm25": 40.8, "pm10": 76.0, "primary_pollutant": "PM10", "updated_at": "2026-06-22T08:00:00Z" },
  { "city": "Jaipur", "state": "Rajasthan", "slug": "jaipur", "lat": 26.9124, "lon": 75.7873, "aqi": 188, "pm25": 71.2, "pm10": 130.0, "primary_pollutant": "PM2.5", "updated_at": "2026-06-22T08:00:00Z" },
  { "city": "Lucknow", "state": "Uttar Pradesh", "slug": "lucknow", "lat": 26.8467, "lon": 80.9462, "aqi": 201, "pm25": 80.4, "pm10": 138.0, "primary_pollutant": "PM2.5", "updated_at": "2026-06-22T08:00:00Z" },
  { "city": "Kanpur", "state": "Uttar Pradesh", "slug": "kanpur", "lat": 26.4499, "lon": 80.3319, "aqi": 223, "pm25": 91.6, "pm10": 154.0, "primary_pollutant": "PM2.5", "updated_at": "2026-06-22T08:00:00Z" },
  { "city": "Patna", "state": "Bihar", "slug": "patna", "lat": 25.5941, "lon": 85.1376, "aqi": 196, "pm25": 76.8, "pm10": 128.0, "primary_pollutant": "PM2.5", "updated_at": "2026-06-22T08:00:00Z" },
  { "city": "Bhopal", "state": "Madhya Pradesh", "slug": "bhopal", "lat": 23.2599, "lon": 77.4126, "aqi": 143, "pm25": 49.7, "pm10": 91.0, "primary_pollutant": "PM10", "updated_at": "2026-06-22T08:00:00Z" },
  { "city": "Varanasi", "state": "Uttar Pradesh", "slug": "varanasi", "lat": 25.3176, "lon": 82.9739, "aqi": 211, "pm25": 85.7, "pm10": 146.0, "primary_pollutant": "PM2.5", "updated_at": "2026-06-22T08:00:00Z" },
  { "city": "Guwahati", "state": "Assam", "slug": "guwahati", "lat": 26.1445, "lon": 91.7362, "aqi": 93, "pm25": 30.4, "pm10": 58.0, "primary_pollutant": "PM10", "updated_at": "2026-06-22T08:00:00Z" },
  { "city": "Coimbatore", "state": "Tamil Nadu", "slug": "coimbatore", "lat": 11.0168, "lon": 76.9558, "aqi": 87, "pm25": 27.6, "pm10": 53.0, "primary_pollutant": "PM10", "updated_at": "2026-06-22T08:00:00Z" },
  { "city": "Chandigarh", "state": "Chandigarh", "slug": "chandigarh", "lat": 30.7333, "lon": 76.7794, "aqi": 120, "pm25": 41.0, "pm10": 78.0, "primary_pollutant": "PM2.5", "updated_at": "2026-06-22T08:00:00Z" },
  { "city": "Amritsar", "state": "Punjab", "slug": "amritsar", "lat": 31.6340, "lon": 74.8723, "aqi": 165, "pm25": 57.0, "pm10": 105.0, "primary_pollutant": "PM2.5", "updated_at": "2026-06-22T08:00:00Z" },
  { "city": "Gurugram", "state": "Haryana", "slug": "gurugram", "lat": 28.4595, "lon": 77.0266, "aqi": 205, "pm25": 82.0, "pm10": 140.0, "primary_pollutant": "PM2.5", "updated_at": "2026-06-22T08:00:00Z" },
  { "city": "Muzaffarpur", "state": "Bihar", "slug": "muzaffarpur", "lat": 26.1197, "lon": 85.3910, "aqi": 190, "pm25": 74.0, "pm10": 125.0, "primary_pollutant": "PM2.5", "updated_at": "2026-06-22T08:00:00Z" }
]
