[
  { "city": "Delhi", "state": "Delhi", "slug": "delhi", "lat": 28.6139, "lon": 77.2090, "aqi": 214, "pm25": 89.2, "pm10": 142.0, "primary_pollutant": "PM2.5", "updated_at": "2026-06-22T08:00:00Z" },
  { "city": "Mumbai", "state": "Maharashtra", "slug": "mumbai", "lat": 19.0760, "lon": 72.8777, "aqi": 147, "pm25": 51.3, "pm10": 98.0, "primary_pollutant": "PM10", "updated_at": "2026-06-22T08:00:00Z" },
  { "city": "Kolkata", "state": "West Bengal", "slug": "kolkata", "lat": 22.5726, "lon": 88.3639, "aqi": 178, "pm25": 64.1, "pm10": 119.0, "primary_pollutant": "PM2.5", "updated_at": "2026-06-22T08:00:00Z" },
  { "city": "Chennai", "state": "Tamil Nadu", "slug": "chennai", "lat": 13.0827, "lon": 80.2707, "aqi": 112, "pm25": 38.4, "pm10": 72.0, "primary_pollutant": "PM10", "updated_at": "2026-06-22T08:00:00Z" },
  { "city": "Bengaluru", "state": "Karnataka", "slug": "bangalore", "lat": 12.9716, "lon": 77.5946, "aqi": 98, "pm25": 32.1, "pm10": 61.0, "primary_pollutant": "PM10", "updated_at": "2026-06-22T08:00:00Z" },
  { "city": "Hyderabad", "state": "Telangana", "slug": "hyderabad", "lat": 17.3850, "lon": 78.4867, "aqi": 132, "pm25": 44.6, "pm10": 87.0, "primary_pollutant": "PM2.5", "updated_at": "2026-06-22T08:00:00Z" },
  { "city": "Ahmedabad", "state": "Gujarat", "slug": "ahmedabad", "lat": 23.0225, "lon": 72.5714, "aqi": 167, "pm25": 58.9, "pm10": 108.0, "primary_pollutant": "PM2.5", "updated_at": "2026-06-22T08:00:00Z" },
  { "city": "Pune", "state": "Maharashtra", "slug": "pune", "lat": 18.5204, "lon": 73.8567, "aqi": 121, "pm25": 40.8, "pm10": 76.0, "primary_pollutant": "PM10", "updated_at": "2026-06-22T08:00:00Z" },
  { "city": "Jaipur", "state": "Rajasthan", "slug": "jaipur", "lat": 26.9124, "lon": 75.7873, "aqi": 188, "pm25": 71.2, "pm10": 130.0, "primary_pollutant": "PM2.5", "updated_at": "2026-06-22T08:00:00Z" },
  { "city": "Lucknow", "state": "Uttar Pradesh", "slug": "lucknow", "lat": 26.8467, "lon": 80.9462, "aqi": 201, "pm25": 80.4, "pm10": 138.0, "primary_pollutant": "PM2.5", "updated_at": "2026-06-22T08:00:00Z" },
  { "city": "Kanpur", "state": "Uttar Pradesh", "slug": "kanpur", "lat": 26.4499, "lon": 80.3319, "aqi": 223, "pm25": 91.6, "pm10": 154.0, "primary_pollutant": "PM2.5", "updated_at": "2026-06-22T08:00:00Z" },
  { "city": "Patna", "state": "Bihar", "slug": "patna", "lat": 25.5941, "lon": 85.1376, "aqi": 196, "pm25": 76.8, "pm10": 128.0, "primary_pollutant": "PM2.5", "updated_at": "2026-06-22T08:00:00Z" },
  { "city": "Bhopal", "state": "Madhya Pradesh", "slug": "bhopal", "lat": 23.2599, "lon": 77.4126, "aqi": 143, "pm25": 49.7, "pm10": 91.0, "primary_pollutant": "PM10", "updated_at": "2026-06-22T08:00:00Z" },
  { "city": "Varanasi", "state": "Uttar Pradesh", "slug": "varanasi", "lat": 25.3176, "lon": 82.9739, "aqi": 211, "pm25": 85.7, "pm10": 146.0, "primary_pollutant": "PM2.5", "updated_at": "2026-06-22T08:00:00Z" },
  { "city": "Guwahati", "state": "Assam", "slug": "guwahati", "lat": 26.1445, "lon": 91.7362, "aqi": 93, "pm25": 30.4, "pm10": 58.0, "primary_pollutant": "PM10", "updated_at": "2026-06-22T08:00:00Z" },
  { "city": "Coimbatore", "state": "Tamil Nadu", "slug": "coimbatore", "lat": 11.0168, "lon": 76.9558, "aqi": 87, "pm25": 27.6, "pm10": 53.0, "primary_pollutant": "PM10", "updated_at": "2026-06-22T08:00:00Z" },
  { "city": "Chandigarh", "state": "Chandigarh", "slug": "chandigarh", "lat": 30.7333, "lon": 76.7794, "aqi": 120, "pm25": 41.0, "pm10": 78.0, "primary_pollutant": "PM2.5", "updated_at": "2026-06-22T08:00:00Z" },
  { "city": "Amritsar", "state": "Punjab", "slug": "amritsar", "lat": 31.6340, "lon": 74.8723, "aqi": 165, "pm25": 57.0, "pm10": 105.0, "primary_pollutant": "PM2.5", "updated_at": "2026-06-22T08:00:00Z" },
  { "city": "Gurugram", "state": "Haryana", "slug": "gurugram", "lat": 28.4595, "lon": 77.0266, "aqi": 205, "pm25": 82.0, "pm10": 140.0, "primary_pollutant": "PM2.5", "updated_at": "2026-06-22T08:00:00Z" },
  { "city": "Muzaffarpur", "state": "Bihar", "slug": "muzaffarpur", "lat": 26.1197, "lon": 85.3910, "aqi": 190, "pm25": 74.0, "pm10": 125.0, "primary_pollutant": "PM2.5", "updated_at": "2026-06-22T08:00:00Z" },
  { "city": "Noida", "state": "Uttar Pradesh", "slug": "noida", "lat": 28.5355, "lon": 77.3910, "aqi": 218, "pm25": 92.0, "pm10": 148.0, "primary_pollutant": "PM2.5", "updated_at": "2026-06-22T08:00:00Z" },
  { "city": "Ghaziabad", "state": "Uttar Pradesh", "slug": "ghaziabad", "lat": 28.6692, "lon": 77.4538, "aqi": 225, "pm25": 96.0, "pm10": 155.0, "primary_pollutant": "PM2.5", "updated_at": "2026-06-22T08:00:00Z" },
  { "city": "Faridabad", "state": "Haryana", "slug": "faridabad", "lat": 28.4089, "lon": 77.3178, "aqi": 195, "pm25": 77.0, "pm10": 130.0, "primary_pollutant": "PM2.5", "updated_at": "2026-06-22T08:00:00Z" },
  { "city": "Agra", "state": "Uttar Pradesh", "slug": "agra", "lat": 27.1767, "lon": 78.0081, "aqi": 175, "pm25": 65.0, "pm10": 112.0, "primary_pollutant": "PM2.5", "updated_at": "2026-06-22T08:00:00Z" },
  { "city": "Meerut", "state": "Uttar Pradesh", "slug": "meerut", "lat": 28.9845, "lon": 77.7064, "aqi": 180, "pm25": 68.0, "pm10": 116.0, "primary_pollutant": "PM2.5", "updated_at": "2026-06-22T08:00:00Z" },
  { "city": "Nashik", "state": "Maharashtra", "slug": "nashik", "lat": 19.9975, "lon": 73.7898, "aqi": 105, "pm25": 35.0, "pm10": 68.0, "primary_pollutant": "PM10", "updated_at": "2026-06-22T08:00:00Z" },
  { "city": "Vadodara", "state": "Gujarat", "slug": "vadodara", "lat": 22.3072, "lon": 73.1812, "aqi": 140, "pm25": 47.0, "pm10": 90.0, "primary_pollutant": "PM10", "updated_at": "2026-06-22T08:00:00Z" },
  { "city": "Rajkot", "state": "Gujarat", "slug": "rajkot", "lat": 22.3039, "lon": 70.8022, "aqi": 118, "pm25": 39.0, "pm10": 75.0, "primary_pollutant": "PM10", "updated_at": "2026-06-22T08:00:00Z" },
  { "city": "Jodhpur", "state": "Rajasthan", "slug": "jodhpur", "lat": 26.2389, "lon": 73.0243, "aqi": 160, "pm25": 56.0, "pm10": 102.0, "primary_pollutant": "PM2.5", "updated_at": "2026-06-22T08:00:00Z" },
  { "city": "Kota", "state": "Rajasthan", "slug": "kota", "lat": 25.2138, "lon": 75.8648, "aqi": 150, "pm25": 51.0, "pm10": 96.0, "primary_pollutant": "PM10", "updated_at": "2026-06-22T08:00:00Z" },
  { "city": "Raipur", "state": "Chhattisgarh", "slug": "raipur", "lat": 21.2514, "lon": 81.6296, "aqi": 155, "pm25": 53.0, "pm10": 99.0, "primary_pollutant": "PM2.5", "updated_at": "2026-06-22T08:00:00Z" },
  { "city": "Bhubaneswar", "state": "Odisha", "slug": "bhubaneswar", "lat": 20.2961, "lon": 85.8245, "aqi": 100, "pm25": 33.0, "pm10": 64.0, "primary_pollutant": "PM10", "updated_at": "2026-06-22T08:00:00Z" },
  { "city": "Ranchi", "state": "Jharkhand", "slug": "ranchi", "lat": 23.3441, "lon": 85.3096, "aqi": 135, "pm25": 45.0, "pm10": 86.0, "primary_pollutant": "PM10", "updated_at": "2026-06-22T08:00:00Z" },
  { "city": "Dehradun", "state": "Uttarakhand", "slug": "dehradun", "lat": 30.3165, "lon": 78.0322, "aqi": 95, "pm25": 30.0, "pm10": 60.0, "primary_pollutant": "PM10", "updated_at": "2026-06-22T08:00:00Z" },
  { "city": "Jammu", "state": "Jammu and Kashmir", "slug": "jammu", "lat": 32.7266, "lon": 74.8570, "aqi": 130, "pm25": 43.0, "pm10": 83.0, "primary_pollutant": "PM10", "updated_at": "2026-06-22T08:00:00Z" },
  { "city": "Srinagar", "state": "Jammu and Kashmir", "slug": "srinagar", "lat": 34.0837, "lon": 74.7973, "aqi": 70, "pm25": 20.0, "pm10": 45.0, "primary_pollutant": "PM10", "updated_at": "2026-06-22T08:00:00Z" },
  { "city": "Thiruvananthapuram", "state": "Kerala", "slug": "thiruvananthapuram", "lat": 8.5241, "lon": 76.9366, "aqi": 55, "pm25": 15.0, "pm10": 35.0, "primary_pollutant": "PM10", "updated_at": "2026-06-22T08:00:00Z" },
  { "city": "Kochi", "state": "Kerala", "slug": "kochi", "lat": 9.9312, "lon": 76.2673, "aqi": 75, "pm25": 23.0, "pm10": 48.0, "primary_pollutant": "PM10", "updated_at": "2026-06-22T08:00:00Z" },
  { "city": "Madurai", "state": "Tamil Nadu", "slug": "madurai", "lat": 9.9252, "lon": 78.1198, "aqi": 90, "pm25": 28.0, "pm10": 57.0, "primary_pollutant": "PM10", "updated_at": "2026-06-22T08:00:00Z" },
  { "city": "Vijayawada", "state": "Andhra Pradesh", "slug": "vijayawada", "lat": 16.5062, "lon": 80.6480, "aqi": 110, "pm25": 36.0, "pm10": 70.0, "primary_pollutant": "PM10", "updated_at": "2026-06-22T08:00:00Z" },
  { "city": "Mysuru", "state": "Karnataka", "slug": "mysuru", "lat": 12.2958, "lon": 76.6394, "aqi": 80, "pm25": 25.0, "pm10": 52.0, "primary_pollutant": "PM10", "updated_at": "2026-06-22T08:00:00Z" },
  { "city": "Jabalpur", "state": "Madhya Pradesh", "slug": "jabalpur", "lat": 23.1815, "lon": 79.9864, "aqi": 125, "pm25": 41.0, "pm10": 80.0, "primary_pollutant": "PM10", "updated_at": "2026-06-22T08:00:00Z" },
  { "city": "Gwalior", "state": "Madhya Pradesh", "slug": "gwalior", "lat": 26.2183, "lon": 78.1828, "aqi": 170, "pm25": 63.0, "pm10": 108.0, "primary_pollutant": "PM2.5", "updated_at": "2026-06-22T08:00:00Z" }
]
