{
 "_meta": {
  "generated_by": "backend/scripts/fetch_emission_sources.py",
  "upstream": "OpenStreetMap via Overpass API (ODbL)",
  "caveat": "OSM proxies for registered emitters, not an official register. Open waste burning is unmapped by nature, so landfills and waste transfer stations stand in for it. A production deployment would use CPCB consent-to-operate and state PCB registers instead.",
  "bbox_half_deg": 0.25,
  "max_per_category_per_city": 60,
  "total_sources": 4088,
  "by_category": {
   "diesel_fleet": 975,
   "industry": 1649,
   "waste_burning": 533,
   "construction": 931
  },
  "cities_covered": 31,
  "failed_cities": []
 },
 "sources": [
  {
   "id": "node/1274128861",
   "city": "Kolkata",
   "category": "diesel_fleet",
   "name": "14 No Bus Stop",
   "lat": 22.502288,
   "lon": 88.318335,
   "osm_url": "https://www.openstreetmap.org/node/1274128861"
  },
  {
   "id": "node/1307939452",
   "city": "Kolkata",
   "category": "diesel_fleet",
   "name": "15 No Bus Stand (S30)",
   "lat": 22.592654,
   "lon": 88.388746,
   "osm_url": "https://www.openstreetmap.org/node/1307939452"
  },
  {
   "id": "node/1358297115",
   "city": "Kolkata",
   "category": "diesel_fleet",
   "name": "CSTC Bus Terminal",
   "lat": 22.481455,
   "lon": 88.346423,
   "osm_url": "https://www.openstreetmap.org/node/1358297115"
  },
  {
   "id": "node/1474860533",
   "city": "Kolkata",
   "category": "diesel_fleet",
   "name": "Belur Math Bus stop",
   "lat": 22.631405,
   "lon": 88.352059,
   "osm_url": "https://www.openstreetmap.org/node/1474860533"
  },
  {
   "id": "node/1553403137",
   "city": "Kolkata",
   "category": "diesel_fleet",
   "name": "45 BUS STAND",
   "lat": 22.471246,
   "lon": 88.37725,
   "osm_url": "https://www.openstreetmap.org/node/1553403137"
  },
  {
   "id": "node/2365886496",
   "city": "Kolkata",
   "category": "diesel_fleet",
   "name": "Gujarat Co-operative Milk Marketing Federation",
   "lat": 22.570966,
   "lon": 88.412696,
   "osm_url": "https://www.openstreetmap.org/node/2365886496"
  },
  {
   "id": "node/3321419430",
   "city": "Kolkata",
   "category": "diesel_fleet",
   "name": "Unnamed diesel_fleet site",
   "lat": 22.597735,
   "lon": 88.31817,
   "osm_url": "https://www.openstreetmap.org/node/3321419430"
  },
  {
   "id": "node/3818939312",
   "city": "Kolkata",
   "category": "diesel_fleet",
   "name": "Serampore Court Bus Terminus",
   "lat": 22.756835,
   "lon": 88.343522,
   "osm_url": "https://www.openstreetmap.org/node/3818939312"
  },
  {
   "id": "node/3883321305",
   "city": "Kolkata",
   "category": "diesel_fleet",
   "name": "Nabanna Bus Stand",
   "lat": 22.565963,
   "lon": 88.313151,
   "osm_url": "https://www.openstreetmap.org/node/3883321305"
  },
  {
   "id": "node/3961008028",
   "city": "Kolkata",
   "category": "diesel_fleet",
   "name": "Parnasree Bus Stand",
   "lat": 22.509398,
   "lon": 88.306527,
   "osm_url": "https://www.openstreetmap.org/node/3961008028"
  },
  {
   "id": "node/4175410289",
   "city": "Kolkata",
   "category": "diesel_fleet",
   "name": "Kolkata Station Bus Terminal",
   "lat": 22.601515,
   "lon": 88.382206,
   "osm_url": "https://www.openstreetmap.org/node/4175410289"
  },
  {
   "id": "node/4178731066",
   "city": "Kolkata",
   "category": "diesel_fleet",
   "name": "B.B.D. Bag",
   "lat": 22.571599,
   "lon": 88.35026,
   "osm_url": "https://www.openstreetmap.org/node/4178731066"
  },
  {
   "id": "node/4178789864",
   "city": "Kolkata",
   "category": "diesel_fleet",
   "name": "Howrah Bus Station",
   "lat": 22.586179,
   "lon": 88.342985,
   "osm_url": "https://www.openstreetmap.org/node/4178789864"
  },
  {
   "id": "node/4178800814",
   "city": "Kolkata",
   "category": "diesel_fleet",
   "name": "Esplanade",
   "lat": 22.564821,
   "lon": 88.351447,
   "osm_url": "https://www.openstreetmap.org/node/4178800814"
  },
  {
   "id": "node/4180455089",
   "city": "Kolkata",
   "category": "diesel_fleet",
   "name": "Park Circus - Chittaranjan Hospital",
   "lat": 22.545159,
   "lon": 88.370374,
   "osm_url": "https://www.openstreetmap.org/node/4180455089"
  },
  {
   "id": "node/4395040300",
   "city": "Kolkata",
   "category": "diesel_fleet",
   "name": "Unnamed diesel_fleet site",
   "lat": 22.452979,
   "lon": 88.302209,
   "osm_url": "https://www.openstreetmap.org/node/4395040300"
  },
  {
   "id": "node/4834783222",
   "city": "Kolkata",
   "category": "diesel_fleet",
   "name": "Esplanade Bus Stand to Airport (line VS2)",
   "lat": 22.562569,
   "lon": 88.349599,
   "osm_url": "https://www.openstreetmap.org/node/4834783222"
  },
  {
   "id": "node/4834788521",
   "city": "Kolkata",
   "category": "diesel_fleet",
   "name": "Airport Bus Stand (lines VS1, VS2, AC37A, AC39, AC43, AC49A)",
   "lat": 22.644756,
   "lon": 88.438729,
   "osm_url": "https://www.openstreetmap.org/node/4834788521"
  },
  {
   "id": "node/5188308321",
   "city": "Kolkata",
   "category": "diesel_fleet",
   "name": "Birati Minibus",
   "lat": 22.662685,
   "lon": 88.43087,
   "osm_url": "https://www.openstreetmap.org/node/5188308321"
  },
  {
   "id": "node/5199752422",
   "city": "Kolkata",
   "category": "diesel_fleet",
   "name": "Shapoorji Bus Stand",
   "lat": 22.565707,
   "lon": 88.514324,
   "osm_url": "https://www.openstreetmap.org/node/5199752422"
  },
  {
   "id": "node/5501955621",
   "city": "Kolkata",
   "category": "industry",
   "name": "Jaya Shri Textiles",
   "lat": 22.730595,
   "lon": 88.342742,
   "osm_url": "https://www.openstreetmap.org/node/5501955621"
  },
  {
   "id": "node/5647099123",
   "city": "Kolkata",
   "category": "diesel_fleet",
   "name": "NBS",
   "lat": 22.582223,
   "lon": 88.343148,
   "osm_url": "https://www.openstreetmap.org/node/5647099123"
  },
  {
   "id": "node/6143232250",
   "city": "Kolkata",
   "category": "diesel_fleet",
   "name": "Esplanade",
   "lat": 22.565246,
   "lon": 88.349994,
   "osm_url": "https://www.openstreetmap.org/node/6143232250"
  },
  {
   "id": "node/6267299785",
   "city": "Kolkata",
   "category": "diesel_fleet",
   "name": "Unnamed diesel_fleet site",
   "lat": 22.509045,
   "lon": 88.333467,
   "osm_url": "https://www.openstreetmap.org/node/6267299785"
  },
  {
   "id": "node/6395595588",
   "city": "Kolkata",
   "category": "diesel_fleet",
   "name": "Rahara bazar bus depot",
   "lat": 22.72388,
   "lon": 88.386827,
   "osm_url": "https://www.openstreetmap.org/node/6395595588"
  },
  {
   "id": "node/6528659485",
   "city": "Kolkata",
   "category": "diesel_fleet",
   "name": "Babughat bus stand",
   "lat": 22.56512,
   "lon": 88.339783,
   "osm_url": "https://www.openstreetmap.org/node/6528659485"
  },
  {
   "id": "node/6541642789",
   "city": "Kolkata",
   "category": "diesel_fleet",
   "name": "4B,Bus Stand",
   "lat": 22.618911,
   "lon": 88.373181,
   "osm_url": "https://www.openstreetmap.org/node/6541642789"
  },
  {
   "id": "node/6714908485",
   "city": "Kolkata",
   "category": "diesel_fleet",
   "name": "Santoshpur BBD BAG mini bus stopage",
   "lat": 22.488696,
   "lon": 88.416252,
   "osm_url": "https://www.openstreetmap.org/node/6714908485"
  },
  {
   "id": "node/7052489791",
   "city": "Kolkata",
   "category": "waste_burning",
   "name": "Unnamed waste_burning site",
   "lat": 22.546234,
   "lon": 88.352797,
   "osm_url": "https://www.openstreetmap.org/node/7052489791"
  },
  {
   "id": "node/8245756024",
   "city": "Kolkata",
   "category": "diesel_fleet",
   "name": "শ্রীরামপুর কেন্দ্রীয় বাস টার্মিনাস",
   "lat": 22.752472,
   "lon": 88.329941,
   "osm_url": "https://www.openstreetmap.org/node/8245756024"
  },
  {
   "id": "node/8321659011",
   "city": "Kolkata",
   "category": "diesel_fleet",
   "name": "3no. Bus Stand",
   "lat": 22.753776,
   "lon": 88.339643,
   "osm_url": "https://www.openstreetmap.org/node/8321659011"
  },
  {
   "id": "node/8855449577",
   "city": "Kolkata",
   "category": "diesel_fleet",
   "name": "Paikpara",
   "lat": 22.61605,
   "lon": 88.379102,
   "osm_url": "https://www.openstreetmap.org/node/8855449577"
  },
  {
   "id": "node/8922165519",
   "city": "Kolkata",
   "category": "diesel_fleet",
   "name": "12B Bus Station (Matiaburj to Dharamtalla)",
   "lat": 22.548512,
   "lon": 88.287861,
   "osm_url": "https://www.openstreetmap.org/node/8922165519"
  },
  {
   "id": "node/8981743383",
   "city": "Kolkata",
   "category": "diesel_fleet",
   "name": "Balaka Bus Terminus",
   "lat": 22.574309,
   "lon": 88.455856,
   "osm_url": "https://www.openstreetmap.org/node/8981743383"
  },
  {
   "id": "node/9473153795",
   "city": "Kolkata",
   "category": "industry",
   "name": "Happy Works - Working pod 2",
   "lat": 22.579134,
   "lon": 88.466759,
   "osm_url": "https://www.openstreetmap.org/node/9473153795"
  },
  {
   "id": "node/9566184417",
   "city": "Kolkata",
   "category": "diesel_fleet",
   "name": "S-3B Bus Terminus",
   "lat": 22.580991,
   "lon": 88.39119,
   "osm_url": "https://www.openstreetmap.org/node/9566184417"
  },
  {
   "id": "node/9910287399",
   "city": "Kolkata",
   "category": "diesel_fleet",
   "name": "Kudghat Bus Stand",
   "lat": 22.481503,
   "lon": 88.346365,
   "osm_url": "https://www.openstreetmap.org/node/9910287399"
  },
  {
   "id": "node/10137972517",
   "city": "Kolkata",
   "category": "diesel_fleet",
   "name": "Nagerbazar Bus Station",
   "lat": 22.623059,
   "lon": 88.414085,
   "osm_url": "https://www.openstreetmap.org/node/10137972517"
  },
  {
   "id": "node/10896875909",
   "city": "Kolkata",
   "category": "diesel_fleet",
   "name": "toto stand shubhash colony barrackpore",
   "lat": 22.767142,
   "lon": 88.373236,
   "osm_url": "https://www.openstreetmap.org/node/10896875909"
  },
  {
   "id": "node/10960407387",
   "city": "Kolkata",
   "category": "industry",
   "name": "jessop & co ltd.",
   "lat": 22.638787,
   "lon": 88.425456,
   "osm_url": "https://www.openstreetmap.org/node/10960407387"
  },
  {
   "id": "node/11300062926",
   "city": "Kolkata",
   "category": "diesel_fleet",
   "name": "Jadavpur 8b Bus Terminal",
   "lat": 22.49566,
   "lon": 88.370563,
   "osm_url": "https://www.openstreetmap.org/node/11300062926"
  },
  {
   "id": "node/11446905870",
   "city": "Kolkata",
   "category": "diesel_fleet",
   "name": "West Bengal Transport Corporation - Belgachia Deopt",
   "lat": 22.605582,
   "lon": 88.384664,
   "osm_url": "https://www.openstreetmap.org/node/11446905870"
  },
  {
   "id": "node/12129001888",
   "city": "Kolkata",
   "category": "diesel_fleet",
   "name": "93 Bus Stand",
   "lat": 22.646414,
   "lon": 88.552113,
   "osm_url": "https://www.openstreetmap.org/node/12129001888"
  },
  {
   "id": "node/12292664601",
   "city": "Kolkata",
   "category": "diesel_fleet",
   "name": "Calcutta State Transport Corporation Depot",
   "lat": 22.506812,
   "lon": 88.354079,
   "osm_url": "https://www.openstreetmap.org/node/12292664601"
  },
  {
   "id": "node/12293455201",
   "city": "Kolkata",
   "category": "diesel_fleet",
   "name": "Tollygunge Tram Depot",
   "lat": 22.493976,
   "lon": 88.346172,
   "osm_url": "https://www.openstreetmap.org/node/12293455201"
  },
  {
   "id": "node/12581616171",
   "city": "Kolkata",
   "category": "waste_burning",
   "name": "South Dum Dum Municipality",
   "lat": 22.620803,
   "lon": 88.39792,
   "osm_url": "https://www.openstreetmap.org/node/12581616171"
  },
  {
   "id": "node/13571767712",
   "city": "Kolkata",
   "category": "construction",
   "name": "Proposed Durga Angan",
   "lat": 22.5798,
   "lon": 88.454934,
   "osm_url": "https://www.openstreetmap.org/node/13571767712"
  },
  {
   "id": "node/13611063699",
   "city": "Kolkata",
   "category": "diesel_fleet",
   "name": "42A BUS STAND",
   "lat": 22.530747,
   "lon": 88.38945,
   "osm_url": "https://www.openstreetmap.org/node/13611063699"
  },
  {
   "id": "node/13645461890",
   "city": "Kolkata",
   "category": "industry",
   "name": "Food And Beverage",
   "lat": 22.665831,
   "lon": 88.389849,
   "osm_url": "https://www.openstreetmap.org/node/13645461890"
  },
  {
   "id": "node/13970745445",
   "city": "Kolkata",
   "category": "diesel_fleet",
   "name": "Howrah CSTC",
   "lat": 22.577347,
   "lon": 88.334244,
   "osm_url": "https://www.openstreetmap.org/node/13970745445"
  },
  {
   "id": "way/52084073",
   "city": "Kolkata",
   "category": "diesel_fleet",
   "name": "Esplanade",
   "lat": 22.562495,
   "lon": 88.349831,
   "osm_url": "https://www.openstreetmap.org/way/52084073"
  },
  {
   "id": "way/101750901",
   "city": "Kolkata",
   "category": "industry",
   "name": "Unnamed industry site",
   "lat": 22.586089,
   "lon": 88.350254,
   "osm_url": "https://www.openstreetmap.org/way/101750901"
  },
  {
   "id": "way/101750926",
   "city": "Kolkata",
   "category": "industry",
   "name": "Unnamed industry site",
   "lat": 22.5904,
   "lon": 88.350883,
   "osm_url": "https://www.openstreetmap.org/way/101750926"
  },
  {
   "id": "way/101757267",
   "city": "Kolkata",
   "category": "industry",
   "name": "Unnamed industry site",
   "lat": 22.577226,
   "lon": 88.347017,
   "osm_url": "https://www.openstreetmap.org/way/101757267"
  },
  {
   "id": "way/101757335",
   "city": "Kolkata",
   "category": "industry",
   "name": "Unnamed industry site",
   "lat": 22.582245,
   "lon": 88.348474,
   "osm_url": "https://www.openstreetmap.org/way/101757335"
  },
  {
   "id": "way/101765730",
   "city": "Kolkata",
   "category": "industry",
   "name": "Unnamed industry site",
   "lat": 22.593099,
   "lon": 88.353082,
   "osm_url": "https://www.openstreetmap.org/way/101765730"
  },
  {
   "id": "way/102036207",
   "city": "Kolkata",
   "category": "industry",
   "name": "Unnamed industry site",
   "lat": 22.565994,
   "lon": 88.329408,
   "osm_url": "https://www.openstreetmap.org/way/102036207"
  },
  {
   "id": "way/103010045",
   "city": "Kolkata",
   "category": "construction",
   "name": "Mayo Hospital",
   "lat": 22.589925,
   "lon": 88.351828,
   "osm_url": "https://www.openstreetmap.org/way/103010045"
  },
  {
   "id": "way/105015950",
   "city": "Kolkata",
   "category": "industry",
   "name": "Unnamed industry site",
   "lat": 22.606815,
   "lon": 88.367287,
   "osm_url": "https://www.openstreetmap.org/way/105015950"
  },
  {
   "id": "way/105741925",
   "city": "Kolkata",
   "category": "industry",
   "name": "Unnamed industry site",
   "lat": 22.574436,
   "lon": 88.376215,
   "osm_url": "https://www.openstreetmap.org/way/105741925"
  },
  {
   "id": "way/105741945",
   "city": "Kolkata",
   "category": "diesel_fleet",
   "name": "Rajabazar Tram Depot",
   "lat": 22.574211,
   "lon": 88.373803,
   "osm_url": "https://www.openstreetmap.org/way/105741945"
  },
  {
   "id": "way/105833291",
   "city": "Kolkata",
   "category": "industry",
   "name": "Unnamed industry site",
   "lat": 22.567103,
   "lon": 88.380052,
   "osm_url": "https://www.openstreetmap.org/way/105833291"
  },
  {
   "id": "way/105833304",
   "city": "Kolkata",
   "category": "industry",
   "name": "Unnamed industry site",
   "lat": 22.566528,
   "lon": 88.376275,
   "osm_url": "https://www.openstreetmap.org/way/105833304"
  },
  {
   "id": "way/112492235",
   "city": "Kolkata",
   "category": "industry",
   "name": "Unnamed industry site",
   "lat": 22.561718,
   "lon": 88.375976,
   "osm_url": "https://www.openstreetmap.org/way/112492235"
  },
  {
   "id": "way/112697452",
   "city": "Kolkata",
   "category": "industry",
   "name": "Unnamed industry site",
   "lat": 22.561735,
   "lon": 88.382373,
   "osm_url": "https://www.openstreetmap.org/way/112697452"
  },
  {
   "id": "way/112699350",
   "city": "Kolkata",
   "category": "industry",
   "name": "Unnamed industry site",
   "lat": 22.561398,
   "lon": 88.380837,
   "osm_url": "https://www.openstreetmap.org/way/112699350"
  },
  {
   "id": "way/112867055",
   "city": "Kolkata",
   "category": "industry",
   "name": "Unnamed industry site",
   "lat": 22.559749,
   "lon": 88.382238,
   "osm_url": "https://www.openstreetmap.org/way/112867055"
  },
  {
   "id": "way/112867056",
   "city": "Kolkata",
   "category": "industry",
   "name": "Unnamed industry site",
   "lat": 22.560985,
   "lon": 88.379699,
   "osm_url": "https://www.openstreetmap.org/way/112867056"
  },
  {
   "id": "way/112867062",
   "city": "Kolkata",
   "category": "industry",
   "name": "Unnamed industry site",
   "lat": 22.557911,
   "lon": 88.380799,
   "osm_url": "https://www.openstreetmap.org/way/112867062"
  },
  {
   "id": "way/112937876",
   "city": "Kolkata",
   "category": "industry",
   "name": "Unnamed industry site",
   "lat": 22.55555,
   "lon": 88.380703,
   "osm_url": "https://www.openstreetmap.org/way/112937876"
  },
  {
   "id": "way/113279111",
   "city": "Kolkata",
   "category": "industry",
   "name": "Unnamed industry site",
   "lat": 22.543529,
   "lon": 88.373363,
   "osm_url": "https://www.openstreetmap.org/way/113279111"
  },
  {
   "id": "way/113282886",
   "city": "Kolkata",
   "category": "industry",
   "name": "Unnamed industry site",
   "lat": 22.553822,
   "lon": 88.3789,
   "osm_url": "https://www.openstreetmap.org/way/113282886"
  },
  {
   "id": "way/113285288",
   "city": "Kolkata",
   "category": "industry",
   "name": "Unnamed industry site",
   "lat": 22.563323,
   "lon": 88.383696,
   "osm_url": "https://www.openstreetmap.org/way/113285288"
  },
  {
   "id": "way/113379723",
   "city": "Kolkata",
   "category": "industry",
   "name": "Unnamed industry site",
   "lat": 22.567853,
   "lon": 88.381818,
   "osm_url": "https://www.openstreetmap.org/way/113379723"
  },
  {
   "id": "way/113379732",
   "city": "Kolkata",
   "category": "industry",
   "name": "Unnamed industry site",
   "lat": 22.565716,
   "lon": 88.385125,
   "osm_url": "https://www.openstreetmap.org/way/113379732"
  },
  {
   "id": "way/113382303",
   "city": "Kolkata",
   "category": "industry",
   "name": "Unnamed industry site",
   "lat": 22.574164,
   "lon": 88.380978,
   "osm_url": "https://www.openstreetmap.org/way/113382303"
  },
  {
   "id": "way/113382319",
   "city": "Kolkata",
   "category": "industry",
   "name": "Unnamed industry site",
   "lat": 22.573355,
   "lon": 88.377787,
   "osm_url": "https://www.openstreetmap.org/way/113382319"
  },
  {
   "id": "way/113615564",
   "city": "Kolkata",
   "category": "industry",
   "name": "Unnamed industry site",
   "lat": 22.581168,
   "lon": 88.382118,
   "osm_url": "https://www.openstreetmap.org/way/113615564"
  },
  {
   "id": "way/113615565",
   "city": "Kolkata",
   "category": "industry",
   "name": "Unnamed industry site",
   "lat": 22.580393,
   "lon": 88.379718,
   "osm_url": "https://www.openstreetmap.org/way/113615565"
  },
  {
   "id": "way/113615569",
   "city": "Kolkata",
   "category": "industry",
   "name": "Unnamed industry site",
   "lat": 22.579543,
   "lon": 88.382684,
   "osm_url": "https://www.openstreetmap.org/way/113615569"
  },
  {
   "id": "way/113615579",
   "city": "Kolkata",
   "category": "industry",
   "name": "Unnamed industry site",
   "lat": 22.578042,
   "lon": 88.380506,
   "osm_url": "https://www.openstreetmap.org/way/113615579"
  },
  {
   "id": "way/113748506",
   "city": "Kolkata",
   "category": "industry",
   "name": "Unnamed industry site",
   "lat": 22.575618,
   "lon": 88.383481,
   "osm_url": "https://www.openstreetmap.org/way/113748506"
  },
  {
   "id": "way/113748516",
   "city": "Kolkata",
   "category": "industry",
   "name": "Unnamed industry site",
   "lat": 22.578694,
   "lon": 88.382327,
   "osm_url": "https://www.openstreetmap.org/way/113748516"
  },
  {
   "id": "way/113856754",
   "city": "Kolkata",
   "category": "industry",
   "name": "Unnamed industry site",
   "lat": 22.584993,
   "lon": 88.380042,
   "osm_url": "https://www.openstreetmap.org/way/113856754"
  },
  {
   "id": "way/113856760",
   "city": "Kolkata",
   "category": "industry",
   "name": "Unnamed industry site",
   "lat": 22.583584,
   "lon": 88.381336,
   "osm_url": "https://www.openstreetmap.org/way/113856760"
  },
  {
   "id": "way/113856768",
   "city": "Kolkata",
   "category": "industry",
   "name": "Unnamed industry site",
   "lat": 22.587032,
   "lon": 88.381985,
   "osm_url": "https://www.openstreetmap.org/way/113856768"
  },
  {
   "id": "way/115509670",
   "city": "Kolkata",
   "category": "industry",
   "name": "Unnamed industry site",
   "lat": 22.581864,
   "lon": 88.386674,
   "osm_url": "https://www.openstreetmap.org/way/115509670"
  },
  {
   "id": "way/115509690",
   "city": "Kolkata",
   "category": "industry",
   "name": "Unnamed industry site",
   "lat": 22.582688,
   "lon": 88.387639,
   "osm_url": "https://www.openstreetmap.org/way/115509690"
  },
  {
   "id": "way/115509694",
   "city": "Kolkata",
   "category": "industry",
   "name": "Unnamed industry site",
   "lat": 22.583726,
   "lon": 88.387384,
   "osm_url": "https://www.openstreetmap.org/way/115509694"
  },
  {
   "id": "way/115509707",
   "city": "Kolkata",
   "category": "industry",
   "name": "Unnamed industry site",
   "lat": 22.582489,
   "lon": 88.386099,
   "osm_url": "https://www.openstreetmap.org/way/115509707"
  },
  {
   "id": "way/115509746",
   "city": "Kolkata",
   "category": "industry",
   "name": "Unnamed industry site",
   "lat": 22.583087,
   "lon": 88.38706,
   "osm_url": "https://www.openstreetmap.org/way/115509746"
  },
  {
   "id": "way/115605269",
   "city": "Kolkata",
   "category": "industry",
   "name": "Unnamed industry site",
   "lat": 22.583572,
   "lon": 88.386042,
   "osm_url": "https://www.openstreetmap.org/way/115605269"
  },
  {
   "id": "way/115610233",
   "city": "Kolkata",
   "category": "industry",
   "name": "Unnamed industry site",
   "lat": 22.584878,
   "lon": 88.388486,
   "osm_url": "https://www.openstreetmap.org/way/115610233"
  },
  {
   "id": "way/115640778",
   "city": "Kolkata",
   "category": "industry",
   "name": "Unnamed industry site",
   "lat": 22.588184,
   "lon": 88.389258,
   "osm_url": "https://www.openstreetmap.org/way/115640778"
  },
  {
   "id": "way/115652857",
   "city": "Kolkata",
   "category": "industry",
   "name": "Unnamed industry site",
   "lat": 22.586863,
   "lon": 88.387286,
   "osm_url": "https://www.openstreetmap.org/way/115652857"
  },
  {
   "id": "way/115652865",
   "city": "Kolkata",
   "category": "industry",
   "name": "Unnamed industry site",
   "lat": 22.587213,
   "lon": 88.38772,
   "osm_url": "https://www.openstreetmap.org/way/115652865"
  },
  {
   "id": "way/115652869",
   "city": "Kolkata",
   "category": "industry",
   "name": "Unnamed industry site",
   "lat": 22.58664,
   "lon": 88.387713,
   "osm_url": "https://www.openstreetmap.org/way/115652869"
  },
  {
   "id": "way/115654041",
   "city": "Kolkata",
   "category": "industry",
   "name": "Unnamed industry site",
   "lat": 22.589869,
   "lon": 88.38591,
   "osm_url": "https://www.openstreetmap.org/way/115654041"
  },
  {
   "id": "way/115771109",
   "city": "Kolkata",
   "category": "industry",
   "name": "Unnamed industry site",
   "lat": 22.590975,
   "lon": 88.381711,
   "osm_url": "https://www.openstreetmap.org/way/115771109"
  },
  {
   "id": "way/115771113",
   "city": "Kolkata",
   "category": "industry",
   "name": "Unnamed industry site",
   "lat": 22.589742,
   "lon": 88.381456,
   "osm_url": "https://www.openstreetmap.org/way/115771113"
  },
  {
   "id": "way/115771910",
   "city": "Kolkata",
   "category": "industry",
   "name": "Unnamed industry site",
   "lat": 22.593372,
   "lon": 88.381764,
   "osm_url": "https://www.openstreetmap.org/way/115771910"
  },
  {
   "id": "way/115879798",
   "city": "Kolkata",
   "category": "industry",
   "name": "Unnamed industry site",
   "lat": 22.5906,
   "lon": 88.387701,
   "osm_url": "https://www.openstreetmap.org/way/115879798"
  },
  {
   "id": "way/115879803",
   "city": "Kolkata",
   "category": "industry",
   "name": "Unnamed industry site",
   "lat": 22.592097,
   "lon": 88.38771,
   "osm_url": "https://www.openstreetmap.org/way/115879803"
  },
  {
   "id": "way/115879823",
   "city": "Kolkata",
   "category": "industry",
   "name": "Unnamed industry site",
   "lat": 22.591931,
   "lon": 88.388759,
   "osm_url": "https://www.openstreetmap.org/way/115879823"
  },
  {
   "id": "way/115880822",
   "city": "Kolkata",
   "category": "industry",
   "name": "Unnamed industry site",
   "lat": 22.595812,
   "lon": 88.380887,
   "osm_url": "https://www.openstreetmap.org/way/115880822"
  },
  {
   "id": "way/116038025",
   "city": "Kolkata",
   "category": "industry",
   "name": "Unnamed industry site",
   "lat": 22.598773,
   "lon": 88.38421,
   "osm_url": "https://www.openstreetmap.org/way/116038025"
  },
  {
   "id": "way/116038030",
   "city": "Kolkata",
   "category": "industry",
   "name": "Unnamed industry site",
   "lat": 22.597324,
   "lon": 88.380528,
   "osm_url": "https://www.openstreetmap.org/way/116038030"
  },
  {
   "id": "way/116038052",
   "city": "Kolkata",
   "category": "industry",
   "name": "Unnamed industry site",
   "lat": 22.598872,
   "lon": 88.382521,
   "osm_url": "https://www.openstreetmap.org/way/116038052"
  },
  {
   "id": "way/116038063",
   "city": "Kolkata",
   "category": "industry",
   "name": "Unnamed industry site",
   "lat": 22.599647,
   "lon": 88.381485,
   "osm_url": "https://www.openstreetmap.org/way/116038063"
  },
  {
   "id": "way/157926086",
   "city": "Kolkata",
   "category": "diesel_fleet",
   "name": "Salt Lake Bus Depot",
   "lat": 22.580079,
   "lon": 88.429585,
   "osm_url": "https://www.openstreetmap.org/way/157926086"
  },
  {
   "id": "way/157933724",
   "city": "Kolkata",
   "category": "diesel_fleet",
   "name": "47/1 BUS DEPOT (SALTLAKE - TOLLYGUNJ METRO)",
   "lat": 22.57842,
   "lon": 88.418711,
   "osm_url": "https://www.openstreetmap.org/way/157933724"
  },
  {
   "id": "way/192714144",
   "city": "Kolkata",
   "category": "diesel_fleet",
   "name": "Karunamoyee International Coach Terminus",
   "lat": 22.585606,
   "lon": 88.421024,
   "osm_url": "https://www.openstreetmap.org/way/192714144"
  },
  {
   "id": "way/193308965",
   "city": "Kolkata",
   "category": "diesel_fleet",
   "name": "ST-6 W-3 Bus Terminus‎",
   "lat": 22.579929,
   "lon": 88.430839,
   "osm_url": "https://www.openstreetmap.org/way/193308965"
  },
  {
   "id": "way/193479372",
   "city": "Kolkata",
   "category": "construction",
   "name": "Unnamed construction site",
   "lat": 22.576926,
   "lon": 88.428235,
   "osm_url": "https://www.openstreetmap.org/way/193479372"
  },
  {
   "id": "way/219246280",
   "city": "Kolkata",
   "category": "diesel_fleet",
   "name": "Babu Ghat",
   "lat": 22.565437,
   "lon": 88.339679,
   "osm_url": "https://www.openstreetmap.org/way/219246280"
  },
  {
   "id": "way/225163203",
   "city": "Kolkata",
   "category": "diesel_fleet",
   "name": "WBTC",
   "lat": 22.468248,
   "lon": 88.403812,
   "osm_url": "https://www.openstreetmap.org/way/225163203"
  },
  {
   "id": "way/237452801",
   "city": "Kolkata",
   "category": "diesel_fleet",
   "name": "44 Bus Stand",
   "lat": 22.610812,
   "lon": 88.428527,
   "osm_url": "https://www.openstreetmap.org/way/237452801"
  },
  {
   "id": "way/237686047",
   "city": "Kolkata",
   "category": "diesel_fleet",
   "name": "New Town Bus Depot",
   "lat": 22.582708,
   "lon": 88.4538,
   "osm_url": "https://www.openstreetmap.org/way/237686047"
  },
  {
   "id": "way/238256853",
   "city": "Kolkata",
   "category": "diesel_fleet",
   "name": "206 Bus Terminal‎",
   "lat": 22.591903,
   "lon": 88.427935,
   "osm_url": "https://www.openstreetmap.org/way/238256853"
  },
  {
   "id": "way/299664270",
   "city": "Kolkata",
   "category": "diesel_fleet",
   "name": "WBTC Bus Terminal",
   "lat": 22.474069,
   "lon": 88.310808,
   "osm_url": "https://www.openstreetmap.org/way/299664270"
  },
  {
   "id": "way/313956962",
   "city": "Kolkata",
   "category": "waste_burning",
   "name": "Unnamed waste_burning site",
   "lat": 22.748968,
   "lon": 88.382603,
   "osm_url": "https://www.openstreetmap.org/way/313956962"
  },
  {
   "id": "way/325363390",
   "city": "Kolkata",
   "category": "waste_burning",
   "name": "Dhapa Landfill",
   "lat": 22.536941,
   "lon": 88.424981,
   "osm_url": "https://www.openstreetmap.org/way/325363390"
  },
  {
   "id": "way/325363409",
   "city": "Kolkata",
   "category": "diesel_fleet",
   "name": "Unnamed diesel_fleet site",
   "lat": 22.514973,
   "lon": 88.400137,
   "osm_url": "https://www.openstreetmap.org/way/325363409"
  },
  {
   "id": "way/331408111",
   "city": "Kolkata",
   "category": "waste_burning",
   "name": "Unnamed waste_burning site",
   "lat": 22.539147,
   "lon": 88.380736,
   "osm_url": "https://www.openstreetmap.org/way/331408111"
  },
  {
   "id": "way/358843199",
   "city": "Kolkata",
   "category": "diesel_fleet",
   "name": "Noapara",
   "lat": 22.639728,
   "lon": 88.394113,
   "osm_url": "https://www.openstreetmap.org/way/358843199"
  },
  {
   "id": "way/362894585",
   "city": "Kolkata",
   "category": "diesel_fleet",
   "name": "Unnamed diesel_fleet site",
   "lat": 22.592281,
   "lon": 88.38863,
   "osm_url": "https://www.openstreetmap.org/way/362894585"
  },
  {
   "id": "way/412641079",
   "city": "Kolkata",
   "category": "diesel_fleet",
   "name": "3A bus stand",
   "lat": 22.456729,
   "lon": 88.304576,
   "osm_url": "https://www.openstreetmap.org/way/412641079"
  },
  {
   "id": "way/419491725",
   "city": "Kolkata",
   "category": "diesel_fleet",
   "name": "Anandapur Bus Stand",
   "lat": 22.512076,
   "lon": 88.408583,
   "osm_url": "https://www.openstreetmap.org/way/419491725"
  },
  {
   "id": "way/535333449",
   "city": "Kolkata",
   "category": "construction",
   "name": "Victoria",
   "lat": 22.549784,
   "lon": 88.339114,
   "osm_url": "https://www.openstreetmap.org/way/535333449"
  },
  {
   "id": "way/535333483",
   "city": "Kolkata",
   "category": "construction",
   "name": "Gour Kishor Ghosh (Chingrighata)",
   "lat": 22.561117,
   "lon": 88.414671,
   "osm_url": "https://www.openstreetmap.org/way/535333483"
  },
  {
   "id": "way/535333491",
   "city": "Kolkata",
   "category": "construction",
   "name": "Mother's Wax Museum Metro Station",
   "lat": 22.603198,
   "lon": 88.47031,
   "osm_url": "https://www.openstreetmap.org/way/535333491"
  },
  {
   "id": "way/535333495",
   "city": "Kolkata",
   "category": "construction",
   "name": "Nalban",
   "lat": 22.571335,
   "lon": 88.420085,
   "osm_url": "https://www.openstreetmap.org/way/535333495"
  },
  {
   "id": "way/535333500",
   "city": "Kolkata",
   "category": "construction",
   "name": "IT Centre (Sector V)",
   "lat": 22.581087,
   "lon": 88.429964,
   "osm_url": "https://www.openstreetmap.org/way/535333500"
  },
  {
   "id": "way/828171881",
   "city": "Kolkata",
   "category": "construction",
   "name": "Unnamed construction site",
   "lat": 22.571747,
   "lon": 88.350117,
   "osm_url": "https://www.openstreetmap.org/way/828171881"
  },
  {
   "id": "way/854927631",
   "city": "Kolkata",
   "category": "construction",
   "name": "Unnamed construction site",
   "lat": 22.551817,
   "lon": 88.570079,
   "osm_url": "https://www.openstreetmap.org/way/854927631"
  },
  {
   "id": "way/854927633",
   "city": "Kolkata",
   "category": "construction",
   "name": "Unnamed construction site",
   "lat": 22.552903,
   "lon": 88.571877,
   "osm_url": "https://www.openstreetmap.org/way/854927633"
  },
  {
   "id": "way/862059360",
   "city": "Kolkata",
   "category": "construction",
   "name": "Unnamed construction site",
   "lat": 22.635087,
   "lon": 88.443419,
   "osm_url": "https://www.openstreetmap.org/way/862059360"
  },
  {
   "id": "way/999311188",
   "city": "Kolkata",
   "category": "construction",
   "name": "Unnamed construction site",
   "lat": 22.565337,
   "lon": 88.494021,
   "osm_url": "https://www.openstreetmap.org/way/999311188"
  },
  {
   "id": "way/999311192",
   "city": "Kolkata",
   "category": "construction",
   "name": "Unnamed construction site",
   "lat": 22.565094,
   "lon": 88.491288,
   "osm_url": "https://www.openstreetmap.org/way/999311192"
  },
  {
   "id": "way/1009539053",
   "city": "Kolkata",
   "category": "construction",
   "name": "Unnamed construction site",
   "lat": 22.563944,
   "lon": 88.491645,
   "osm_url": "https://www.openstreetmap.org/way/1009539053"
  },
  {
   "id": "way/1009539055",
   "city": "Kolkata",
   "category": "construction",
   "name": "Unnamed construction site",
   "lat": 22.564493,
   "lon": 88.49141,
   "osm_url": "https://www.openstreetmap.org/way/1009539055"
  },
  {
   "id": "way/1009539056",
   "city": "Kolkata",
   "category": "construction",
   "name": "Unnamed construction site",
   "lat": 22.564857,
   "lon": 88.491138,
   "osm_url": "https://www.openstreetmap.org/way/1009539056"
  },
  {
   "id": "way/1069663079",
   "city": "Kolkata",
   "category": "waste_burning",
   "name": "Unnamed waste_burning site",
   "lat": 22.563361,
   "lon": 88.490566,
   "osm_url": "https://www.openstreetmap.org/way/1069663079"
  },
  {
   "id": "way/1146853628",
   "city": "Kolkata",
   "category": "construction",
   "name": "Bowbazar Shaft",
   "lat": 22.568508,
   "lon": 88.362022,
   "osm_url": "https://www.openstreetmap.org/way/1146853628"
  },
  {
   "id": "way/1146857318",
   "city": "Kolkata",
   "category": "construction",
   "name": "Unnamed construction site",
   "lat": 22.520477,
   "lon": 88.323702,
   "osm_url": "https://www.openstreetmap.org/way/1146857318"
  },
  {
   "id": "way/1159129369",
   "city": "Kolkata",
   "category": "construction",
   "name": "Heights 10",
   "lat": 22.56632,
   "lon": 88.495524,
   "osm_url": "https://www.openstreetmap.org/way/1159129369"
  },
  {
   "id": "way/1159133799",
   "city": "Kolkata",
   "category": "construction",
   "name": "Unnamed construction site",
   "lat": 22.56456,
   "lon": 88.496613,
   "osm_url": "https://www.openstreetmap.org/way/1159133799"
  },
  {
   "id": "way/1159135721",
   "city": "Kolkata",
   "category": "construction",
   "name": "Unnamed construction site",
   "lat": 22.559216,
   "lon": 88.497152,
   "osm_url": "https://www.openstreetmap.org/way/1159135721"
  },
  {
   "id": "way/1159195899",
   "city": "Kolkata",
   "category": "construction",
   "name": "Cascade Tower 10",
   "lat": 22.56565,
   "lon": 88.496563,
   "osm_url": "https://www.openstreetmap.org/way/1159195899"
  },
  {
   "id": "way/1159195900",
   "city": "Kolkata",
   "category": "construction",
   "name": "Cascade Tower 9",
   "lat": 22.566019,
   "lon": 88.496217,
   "osm_url": "https://www.openstreetmap.org/way/1159195900"
  },
  {
   "id": "way/1159195906",
   "city": "Kolkata",
   "category": "construction",
   "name": "Cascade Tower 8",
   "lat": 22.565555,
   "lon": 88.495739,
   "osm_url": "https://www.openstreetmap.org/way/1159195906"
  },
  {
   "id": "way/1159195907",
   "city": "Kolkata",
   "category": "construction",
   "name": "Cascade Tower 7",
   "lat": 22.565158,
   "lon": 88.495423,
   "osm_url": "https://www.openstreetmap.org/way/1159195907"
  },
  {
   "id": "way/1159195908",
   "city": "Kolkata",
   "category": "construction",
   "name": "Cascade Tower 6",
   "lat": 22.564754,
   "lon": 88.495109,
   "osm_url": "https://www.openstreetmap.org/way/1159195908"
  },
  {
   "id": "way/1159195909",
   "city": "Kolkata",
   "category": "construction",
   "name": "Cascade Tower 5",
   "lat": 22.56419,
   "lon": 88.495088,
   "osm_url": "https://www.openstreetmap.org/way/1159195909"
  },
  {
   "id": "way/1159356992",
   "city": "Kolkata",
   "category": "construction",
   "name": "Harmony 4",
   "lat": 22.564079,
   "lon": 88.4968,
   "osm_url": "https://www.openstreetmap.org/way/1159356992"
  },
  {
   "id": "way/1159356993",
   "city": "Kolkata",
   "category": "construction",
   "name": "Harmony 6",
   "lat": 22.56448,
   "lon": 88.497619,
   "osm_url": "https://www.openstreetmap.org/way/1159356993"
  },
  {
   "id": "way/1159356994",
   "city": "Kolkata",
   "category": "construction",
   "name": "Harmony 7",
   "lat": 22.564094,
   "lon": 88.497984,
   "osm_url": "https://www.openstreetmap.org/way/1159356994"
  },
  {
   "id": "way/1159356995",
   "city": "Kolkata",
   "category": "construction",
   "name": "Harmony 8",
   "lat": 22.563565,
   "lon": 88.498208,
   "osm_url": "https://www.openstreetmap.org/way/1159356995"
  },
  {
   "id": "way/1159356996",
   "city": "Kolkata",
   "category": "construction",
   "name": "Harmony 1",
   "lat": 22.563204,
   "lon": 88.497589,
   "osm_url": "https://www.openstreetmap.org/way/1159356996"
  },
  {
   "id": "way/1159356997",
   "city": "Kolkata",
   "category": "construction",
   "name": "Harmony 2",
   "lat": 22.563378,
   "lon": 88.497073,
   "osm_url": "https://www.openstreetmap.org/way/1159356997"
  },
  {
   "id": "way/1159356999",
   "city": "Kolkata",
   "category": "construction",
   "name": "Harmony 5",
   "lat": 22.564577,
   "lon": 88.497086,
   "osm_url": "https://www.openstreetmap.org/way/1159356999"
  },
  {
   "id": "way/1159366579",
   "city": "Kolkata",
   "category": "construction",
   "name": "Fresco Tower 9",
   "lat": 22.558739,
   "lon": 88.496822,
   "osm_url": "https://www.openstreetmap.org/way/1159366579"
  },
  {
   "id": "way/1159366580",
   "city": "Kolkata",
   "category": "construction",
   "name": "Fresco Tower 8",
   "lat": 22.5591,
   "lon": 88.497191,
   "osm_url": "https://www.openstreetmap.org/way/1159366580"
  },
  {
   "id": "way/1159366581",
   "city": "Kolkata",
   "category": "construction",
   "name": "Fresco Tower 7",
   "lat": 22.559402,
   "lon": 88.497202,
   "osm_url": "https://www.openstreetmap.org/way/1159366581"
  },
  {
   "id": "way/1159999303",
   "city": "Kolkata",
   "category": "construction",
   "name": "Unnamed construction site",
   "lat": 22.566968,
   "lon": 88.490622,
   "osm_url": "https://www.openstreetmap.org/way/1159999303"
  },
  {
   "id": "way/1159999320",
   "city": "Kolkata",
   "category": "construction",
   "name": "Unnamed construction site",
   "lat": 22.566173,
   "lon": 88.489941,
   "osm_url": "https://www.openstreetmap.org/way/1159999320"
  },
  {
   "id": "way/1159999323",
   "city": "Kolkata",
   "category": "construction",
   "name": "Unnamed construction site",
   "lat": 22.566476,
   "lon": 88.488143,
   "osm_url": "https://www.openstreetmap.org/way/1159999323"
  },
  {
   "id": "way/1159999324",
   "city": "Kolkata",
   "category": "construction",
   "name": "Unnamed construction site",
   "lat": 22.565795,
   "lon": 88.488932,
   "osm_url": "https://www.openstreetmap.org/way/1159999324"
  },
  {
   "id": "way/1159999325",
   "city": "Kolkata",
   "category": "construction",
   "name": "Unnamed construction site",
   "lat": 22.565569,
   "lon": 88.488715,
   "osm_url": "https://www.openstreetmap.org/way/1159999325"
  },
  {
   "id": "way/1159999326",
   "city": "Kolkata",
   "category": "construction",
   "name": "Unnamed construction site",
   "lat": 22.565,
   "lon": 88.490252,
   "osm_url": "https://www.openstreetmap.org/way/1159999326"
  },
  {
   "id": "way/1159999328",
   "city": "Kolkata",
   "category": "construction",
   "name": "Unnamed construction site",
   "lat": 22.564678,
   "lon": 88.490847,
   "osm_url": "https://www.openstreetmap.org/way/1159999328"
  },
  {
   "id": "way/1159999330",
   "city": "Kolkata",
   "category": "construction",
   "name": "Unnamed construction site",
   "lat": 22.564304,
   "lon": 88.490469,
   "osm_url": "https://www.openstreetmap.org/way/1159999330"
  },
  {
   "id": "way/1159999331",
   "city": "Kolkata",
   "category": "construction",
   "name": "Unnamed construction site",
   "lat": 22.564392,
   "lon": 88.490912,
   "osm_url": "https://www.openstreetmap.org/way/1159999331"
  },
  {
   "id": "way/1159999332",
   "city": "Kolkata",
   "category": "construction",
   "name": "Unnamed construction site",
   "lat": 22.564043,
   "lon": 88.489798,
   "osm_url": "https://www.openstreetmap.org/way/1159999332"
  },
  {
   "id": "way/1159999333",
   "city": "Kolkata",
   "category": "construction",
   "name": "Unnamed construction site",
   "lat": 22.563979,
   "lon": 88.489908,
   "osm_url": "https://www.openstreetmap.org/way/1159999333"
  },
  {
   "id": "way/1159999335",
   "city": "Kolkata",
   "category": "construction",
   "name": "Unnamed construction site",
   "lat": 22.564448,
   "lon": 88.489681,
   "osm_url": "https://www.openstreetmap.org/way/1159999335"
  },
  {
   "id": "way/1159999336",
   "city": "Kolkata",
   "category": "construction",
   "name": "Unnamed construction site",
   "lat": 22.564306,
   "lon": 88.489291,
   "osm_url": "https://www.openstreetmap.org/way/1159999336"
  },
  {
   "id": "way/1159999337",
   "city": "Kolkata",
   "category": "construction",
   "name": "Unnamed construction site",
   "lat": 22.563795,
   "lon": 88.489131,
   "osm_url": "https://www.openstreetmap.org/way/1159999337"
  },
  {
   "id": "way/1159999340",
   "city": "Kolkata",
   "category": "construction",
   "name": "Unnamed construction site",
   "lat": 22.565351,
   "lon": 88.488868,
   "osm_url": "https://www.openstreetmap.org/way/1159999340"
  },
  {
   "id": "way/1159999341",
   "city": "Kolkata",
   "category": "construction",
   "name": "Unnamed construction site",
   "lat": 22.565173,
   "lon": 88.488691,
   "osm_url": "https://www.openstreetmap.org/way/1159999341"
  },
  {
   "id": "way/1159999342",
   "city": "Kolkata",
   "category": "construction",
   "name": "Unnamed construction site",
   "lat": 22.565366,
   "lon": 88.488471,
   "osm_url": "https://www.openstreetmap.org/way/1159999342"
  },
  {
   "id": "way/1159999343",
   "city": "Kolkata",
   "category": "construction",
   "name": "Unnamed construction site",
   "lat": 22.565651,
   "lon": 88.488154,
   "osm_url": "https://www.openstreetmap.org/way/1159999343"
  },
  {
   "id": "way/1159999344",
   "city": "Kolkata",
   "category": "construction",
   "name": "Unnamed construction site",
   "lat": 22.565978,
   "lon": 88.487717,
   "osm_url": "https://www.openstreetmap.org/way/1159999344"
  },
  {
   "id": "way/1159999345",
   "city": "Kolkata",
   "category": "construction",
   "name": "Unnamed construction site",
   "lat": 22.566793,
   "lon": 88.488653,
   "osm_url": "https://www.openstreetmap.org/way/1159999345"
  },
  {
   "id": "way/1159999346",
   "city": "Kolkata",
   "category": "construction",
   "name": "Unnamed construction site",
   "lat": 22.566179,
   "lon": 88.489431,
   "osm_url": "https://www.openstreetmap.org/way/1159999346"
  },
  {
   "id": "way/1159999348",
   "city": "Kolkata",
   "category": "construction",
   "name": "Unnamed construction site",
   "lat": 22.565546,
   "lon": 88.489243,
   "osm_url": "https://www.openstreetmap.org/way/1159999348"
  },
  {
   "id": "way/1376621003",
   "city": "Kolkata",
   "category": "waste_burning",
   "name": "Unnamed waste_burning site",
   "lat": 22.647786,
   "lon": 88.395548,
   "osm_url": "https://www.openstreetmap.org/way/1376621003"
  },
  {
   "id": "way/1532937822",
   "city": "Kolkata",
   "category": "waste_burning",
   "name": "Kolkata Solid Waste Management Improvement Project",
   "lat": 22.788065,
   "lon": 88.310174,
   "osm_url": "https://www.openstreetmap.org/way/1532937822"
  },
  {
   "id": "node/243060332",
   "city": "Chennai",
   "category": "diesel_fleet",
   "name": "மைலாப்பூர்",
   "lat": 13.033434,
   "lon": 80.267946,
   "osm_url": "https://www.openstreetmap.org/node/243060332"
  },
  {
   "id": "node/247677936",
   "city": "Chennai",
   "category": "diesel_fleet",
   "name": "Foreshore Estate Bus Terminus",
   "lat": 13.022402,
   "lon": 80.276327,
   "osm_url": "https://www.openstreetmap.org/node/247677936"
  },
  {
   "id": "node/247691544",
   "city": "Chennai",
   "category": "diesel_fleet",
   "name": "V House Bus Terminus",
   "lat": 13.051211,
   "lon": 80.277839,
   "osm_url": "https://www.openstreetmap.org/node/247691544"
  },
  {
   "id": "node/248454339",
   "city": "Chennai",
   "category": "diesel_fleet",
   "name": "Poonamallee MTC Terminus",
   "lat": 13.05116,
   "lon": 80.094955,
   "osm_url": "https://www.openstreetmap.org/node/248454339"
  },
  {
   "id": "node/262308392",
   "city": "Chennai",
   "category": "diesel_fleet",
   "name": "GingerBread",
   "lat": 13.080216,
   "lon": 80.173696,
   "osm_url": "https://www.openstreetmap.org/node/262308392"
  },
  {
   "id": "node/278746634",
   "city": "Chennai",
   "category": "diesel_fleet",
   "name": "Nanganallur Bus Terminus",
   "lat": 12.977807,
   "lon": 80.181248,
   "osm_url": "https://www.openstreetmap.org/node/278746634"
  },
  {
   "id": "node/306104406",
   "city": "Chennai",
   "category": "diesel_fleet",
   "name": "Puratchi Thalaivar Dr. M.G.R Bus Terminus",
   "lat": 13.06846,
   "lon": 80.205125,
   "osm_url": "https://www.openstreetmap.org/node/306104406"
  },
  {
   "id": "node/306105674",
   "city": "Chennai",
   "category": "diesel_fleet",
   "name": "Ramapuram Bus Stand",
   "lat": 13.034805,
   "lon": 80.173857,
   "osm_url": "https://www.openstreetmap.org/node/306105674"
  },
  {
   "id": "node/306113099",
   "city": "Chennai",
   "category": "diesel_fleet",
   "name": "Taramani",
   "lat": 12.985477,
   "lon": 80.240563,
   "osm_url": "https://www.openstreetmap.org/node/306113099"
  },
  {
   "id": "node/308032774",
   "city": "Chennai",
   "category": "diesel_fleet",
   "name": "Saligramam Bus Terminus",
   "lat": 13.053339,
   "lon": 80.197083,
   "osm_url": "https://www.openstreetmap.org/node/308032774"
  },
  {
   "id": "node/311284385",
   "city": "Chennai",
   "category": "diesel_fleet",
   "name": "Perambur MTC Terminus",
   "lat": 13.108569,
   "lon": 80.248252,
   "osm_url": "https://www.openstreetmap.org/node/311284385"
  },
  {
   "id": "node/311337040",
   "city": "Chennai",
   "category": "diesel_fleet",
   "name": "ICF MTC Terminus",
   "lat": 13.100243,
   "lon": 80.214714,
   "osm_url": "https://www.openstreetmap.org/node/311337040"
  },
  {
   "id": "node/321652675",
   "city": "Chennai",
   "category": "diesel_fleet",
   "name": "Minjur MTC Terminus",
   "lat": 13.28201,
   "lon": 80.253705,
   "osm_url": "https://www.openstreetmap.org/node/321652675"
  },
  {
   "id": "node/321659385",
   "city": "Chennai",
   "category": "diesel_fleet",
   "name": "Manali MTC Terminus",
   "lat": 13.169977,
   "lon": 80.257159,
   "osm_url": "https://www.openstreetmap.org/node/321659385"
  },
  {
   "id": "node/321661962",
   "city": "Chennai",
   "category": "diesel_fleet",
   "name": "மாதவரம் மாநகர பேருந்து முனையம்",
   "lat": 13.152368,
   "lon": 80.228345,
   "osm_url": "https://www.openstreetmap.org/node/321661962"
  },
  {
   "id": "node/332004894",
   "city": "Chennai",
   "category": "diesel_fleet",
   "name": "Kundrathur Temple MTC Terminus",
   "lat": 12.987217,
   "lon": 80.093238,
   "osm_url": "https://www.openstreetmap.org/node/332004894"
  },
  {
   "id": "node/340042533",
   "city": "Chennai",
   "category": "diesel_fleet",
   "name": "Hasthinapuram MTC Terminus",
   "lat": 12.940444,
   "lon": 80.150586,
   "osm_url": "https://www.openstreetmap.org/node/340042533"
  },
  {
   "id": "node/340088810",
   "city": "Chennai",
   "category": "diesel_fleet",
   "name": "Tambaram MTC Terminus",
   "lat": 12.925339,
   "lon": 80.116745,
   "osm_url": "https://www.openstreetmap.org/node/340088810"
  },
  {
   "id": "node/340088821",
   "city": "Chennai",
   "category": "diesel_fleet",
   "name": "Tambaram East MTC Terminus",
   "lat": 12.923598,
   "lon": 80.117091,
   "osm_url": "https://www.openstreetmap.org/node/340088821"
  },
  {
   "id": "node/344420267",
   "city": "Chennai",
   "category": "diesel_fleet",
   "name": "Ayanavaram MTC Terminus",
   "lat": 13.098591,
   "lon": 80.242004,
   "osm_url": "https://www.openstreetmap.org/node/344420267"
  },
  {
   "id": "node/359120280",
   "city": "Chennai",
   "category": "diesel_fleet",
   "name": "Erumaivettipalayam Bus Stand",
   "lat": 13.242455,
   "lon": 80.120113,
   "osm_url": "https://www.openstreetmap.org/node/359120280"
  },
  {
   "id": "node/360562773",
   "city": "Chennai",
   "category": "diesel_fleet",
   "name": "Puzhuthivakkam Bus Stand",
   "lat": 12.97398,
   "lon": 80.202931,
   "osm_url": "https://www.openstreetmap.org/node/360562773"
  },
  {
   "id": "node/366770716",
   "city": "Chennai",
   "category": "industry",
   "name": "eZee Bags",
   "lat": 12.99853,
   "lon": 80.204827,
   "osm_url": "https://www.openstreetmap.org/node/366770716"
  },
  {
   "id": "node/370969659",
   "city": "Chennai",
   "category": "diesel_fleet",
   "name": "Ayyapanthangal",
   "lat": 13.037793,
   "lon": 80.134942,
   "osm_url": "https://www.openstreetmap.org/node/370969659"
  },
  {
   "id": "node/373077167",
   "city": "Chennai",
   "category": "diesel_fleet",
   "name": "Ennore MTC Terminus",
   "lat": 13.214722,
   "lon": 80.320837,
   "osm_url": "https://www.openstreetmap.org/node/373077167"
  },
  {
   "id": "node/389964614",
   "city": "Chennai",
   "category": "diesel_fleet",
   "name": "KK Nagar West MTC Terminus",
   "lat": 13.044159,
   "lon": 80.193303,
   "osm_url": "https://www.openstreetmap.org/node/389964614"
  },
  {
   "id": "node/401695312",
   "city": "Chennai",
   "category": "diesel_fleet",
   "name": "Kannagi Nagar MTCTerminus",
   "lat": 12.925654,
   "lon": 80.238308,
   "osm_url": "https://www.openstreetmap.org/node/401695312"
  },
  {
   "id": "node/401769770",
   "city": "Chennai",
   "category": "diesel_fleet",
   "name": "NGO Colony Bus Terminus",
   "lat": 12.994789,
   "lon": 80.206816,
   "osm_url": "https://www.openstreetmap.org/node/401769770"
  },
  {
   "id": "node/402290805",
   "city": "Chennai",
   "category": "diesel_fleet",
   "name": "Thiruverkadu MTC Bus Terminus",
   "lat": 13.069585,
   "lon": 80.124022,
   "osm_url": "https://www.openstreetmap.org/node/402290805"
  },
  {
   "id": "node/402298612",
   "city": "Chennai",
   "category": "diesel_fleet",
   "name": "Semmanchery MTC Terminus",
   "lat": 12.874697,
   "lon": 80.209765,
   "osm_url": "https://www.openstreetmap.org/node/402298612"
  },
  {
   "id": "node/402656745",
   "city": "Chennai",
   "category": "diesel_fleet",
   "name": "Elango Nagar MTC Terminus",
   "lat": 13.090602,
   "lon": 80.185474,
   "osm_url": "https://www.openstreetmap.org/node/402656745"
  },
  {
   "id": "node/402750050",
   "city": "Chennai",
   "category": "diesel_fleet",
   "name": "Parvathi Nagar MTC Terminus",
   "lat": 13.145751,
   "lon": 80.250441,
   "osm_url": "https://www.openstreetmap.org/node/402750050"
  },
  {
   "id": "node/442132009",
   "city": "Chennai",
   "category": "diesel_fleet",
   "name": "Tambaram Bus Stand",
   "lat": 12.927719,
   "lon": 80.118742,
   "osm_url": "https://www.openstreetmap.org/node/442132009"
  },
  {
   "id": "node/442538699",
   "city": "Chennai",
   "category": "diesel_fleet",
   "name": "Madipakkam Bus Stand",
   "lat": 12.962861,
   "lon": 80.198284,
   "osm_url": "https://www.openstreetmap.org/node/442538699"
  },
  {
   "id": "node/560307775",
   "city": "Chennai",
   "category": "industry",
   "name": "vinayaga",
   "lat": 12.945934,
   "lon": 80.13897,
   "osm_url": "https://www.openstreetmap.org/node/560307775"
  },
  {
   "id": "node/675894194",
   "city": "Chennai",
   "category": "diesel_fleet",
   "name": "Vinayakapuram",
   "lat": 13.139863,
   "lon": 80.20568,
   "osm_url": "https://www.openstreetmap.org/node/675894194"
  },
  {
   "id": "node/978180633",
   "city": "Chennai",
   "category": "industry",
   "name": "TVS Electronics",
   "lat": 13.014503,
   "lon": 80.200143,
   "osm_url": "https://www.openstreetmap.org/node/978180633"
  },
  {
   "id": "node/978253320",
   "city": "Chennai",
   "category": "diesel_fleet",
   "name": "Padappai Bus Stand",
   "lat": 12.886724,
   "lon": 80.021501,
   "osm_url": "https://www.openstreetmap.org/node/978253320"
  },
  {
   "id": "node/1053605057",
   "city": "Chennai",
   "category": "industry",
   "name": "Precision",
   "lat": 13.049614,
   "lon": 80.243426,
   "osm_url": "https://www.openstreetmap.org/node/1053605057"
  },
  {
   "id": "node/1145642404",
   "city": "Chennai",
   "category": "diesel_fleet",
   "name": "Guduvancheri MTC Terminus",
   "lat": 12.844796,
   "lon": 80.061804,
   "osm_url": "https://www.openstreetmap.org/node/1145642404"
  },
  {
   "id": "node/1185703062",
   "city": "Chennai",
   "category": "diesel_fleet",
   "name": "Avadi Market",
   "lat": 13.116052,
   "lon": 80.106263,
   "osm_url": "https://www.openstreetmap.org/node/1185703062"
  },
  {
   "id": "node/1330414242",
   "city": "Chennai",
   "category": "diesel_fleet",
   "name": "Unnamed diesel_fleet site",
   "lat": 12.921309,
   "lon": 80.19705,
   "osm_url": "https://www.openstreetmap.org/node/1330414242"
  },
  {
   "id": "node/1391028778",
   "city": "Chennai",
   "category": "diesel_fleet",
   "name": "KK Nagar MTC Terminus",
   "lat": 13.035422,
   "lon": 80.205717,
   "osm_url": "https://www.openstreetmap.org/node/1391028778"
  },
  {
   "id": "node/1391573894",
   "city": "Chennai",
   "category": "diesel_fleet",
   "name": "IOC MTC Terminus",
   "lat": 13.139069,
   "lon": 80.282031,
   "osm_url": "https://www.openstreetmap.org/node/1391573894"
  },
  {
   "id": "node/1391573897",
   "city": "Chennai",
   "category": "diesel_fleet",
   "name": "Thirovttriyur MTC Terminus",
   "lat": 13.172164,
   "lon": 80.305091,
   "osm_url": "https://www.openstreetmap.org/node/1391573897"
  },
  {
   "id": "node/1428608424",
   "city": "Chennai",
   "category": "diesel_fleet",
   "name": "Mathur MMDA",
   "lat": 13.171374,
   "lon": 80.247506,
   "osm_url": "https://www.openstreetmap.org/node/1428608424"
  },
  {
   "id": "node/1693526124",
   "city": "Chennai",
   "category": "diesel_fleet",
   "name": "Medavakkam Bus Terminus",
   "lat": 12.919728,
   "lon": 80.182261,
   "osm_url": "https://www.openstreetmap.org/node/1693526124"
  },
  {
   "id": "node/2210065615",
   "city": "Chennai",
   "category": "diesel_fleet",
   "name": "Valluvar Nagar Bus Stop",
   "lat": 12.893383,
   "lon": 80.183493,
   "osm_url": "https://www.openstreetmap.org/node/2210065615"
  },
  {
   "id": "node/2851051573",
   "city": "Chennai",
   "category": "industry",
   "name": "Vulcabras Azaleia Sporting Goods India Private Limited",
   "lat": 12.979845,
   "lon": 80.191553,
   "osm_url": "https://www.openstreetmap.org/node/2851051573"
  },
  {
   "id": "node/3256666197",
   "city": "Chennai",
   "category": "industry",
   "name": "Cognizant Technoloies Solutions (CTS)",
   "lat": 12.928501,
   "lon": 80.229539,
   "osm_url": "https://www.openstreetmap.org/node/3256666197"
  },
  {
   "id": "node/3264836692",
   "city": "Chennai",
   "category": "diesel_fleet",
   "name": "Chembarambakkam",
   "lat": 13.031804,
   "lon": 80.055528,
   "osm_url": "https://www.openstreetmap.org/node/3264836692"
  },
  {
   "id": "node/3264888779",
   "city": "Chennai",
   "category": "diesel_fleet",
   "name": "Guindy Bus Stand",
   "lat": 13.009059,
   "lon": 80.210793,
   "osm_url": "https://www.openstreetmap.org/node/3264888779"
  },
  {
   "id": "node/4358676515",
   "city": "Chennai",
   "category": "waste_burning",
   "name": "Unnamed waste_burning site",
   "lat": 12.985717,
   "lon": 80.229964,
   "osm_url": "https://www.openstreetmap.org/node/4358676515"
  },
  {
   "id": "node/4358676516",
   "city": "Chennai",
   "category": "waste_burning",
   "name": "Unnamed waste_burning site",
   "lat": 12.986441,
   "lon": 80.229791,
   "osm_url": "https://www.openstreetmap.org/node/4358676516"
  },
  {
   "id": "node/4359539269",
   "city": "Chennai",
   "category": "industry",
   "name": "T.I. Cycles",
   "lat": 13.112209,
   "lon": 80.146987,
   "osm_url": "https://www.openstreetmap.org/node/4359539269"
  },
  {
   "id": "node/4381055589",
   "city": "Chennai",
   "category": "industry",
   "name": "Unnamed industry site",
   "lat": 12.96044,
   "lon": 80.251901,
   "osm_url": "https://www.openstreetmap.org/node/4381055589"
  },
  {
   "id": "node/4546369389",
   "city": "Chennai",
   "category": "diesel_fleet",
   "name": "Unnamed diesel_fleet site",
   "lat": 13.069513,
   "lon": 80.199087,
   "osm_url": "https://www.openstreetmap.org/node/4546369389"
  },
  {
   "id": "node/4639712097",
   "city": "Chennai",
   "category": "industry",
   "name": "Mary Timbers",
   "lat": 12.920785,
   "lon": 80.089835,
   "osm_url": "https://www.openstreetmap.org/node/4639712097"
  },
  {
   "id": "node/5230370403",
   "city": "Chennai",
   "category": "diesel_fleet",
   "name": "Mogappair West Bus Terminus",
   "lat": 13.082209,
   "lon": 80.170411,
   "osm_url": "https://www.openstreetmap.org/node/5230370403"
  },
  {
   "id": "node/5318548733",
   "city": "Chennai",
   "category": "diesel_fleet",
   "name": "SRM Travels",
   "lat": 13.071098,
   "lon": 80.202996,
   "osm_url": "https://www.openstreetmap.org/node/5318548733"
  },
  {
   "id": "node/5372752960",
   "city": "Chennai",
   "category": "waste_burning",
   "name": "S.M.D Waste Paper Mart",
   "lat": 13.086664,
   "lon": 80.19264,
   "osm_url": "https://www.openstreetmap.org/node/5372752960"
  },
  {
   "id": "node/5490011891",
   "city": "Chennai",
   "category": "industry",
   "name": "RBC engineering",
   "lat": 13.076652,
   "lon": 80.181373,
   "osm_url": "https://www.openstreetmap.org/node/5490011891"
  },
  {
   "id": "node/5499159035",
   "city": "Chennai",
   "category": "industry",
   "name": "Annai Paper and Plastic products",
   "lat": 13.034889,
   "lon": 80.100549,
   "osm_url": "https://www.openstreetmap.org/node/5499159035"
  },
  {
   "id": "node/6354463623",
   "city": "Chennai",
   "category": "diesel_fleet",
   "name": "Tiruninravur Bus Stand",
   "lat": 13.124774,
   "lon": 80.032386,
   "osm_url": "https://www.openstreetmap.org/node/6354463623"
  },
  {
   "id": "node/6547612971",
   "city": "Chennai",
   "category": "waste_burning",
   "name": "Unnamed waste_burning site",
   "lat": 12.981013,
   "lon": 80.22534,
   "osm_url": "https://www.openstreetmap.org/node/6547612971"
  },
  {
   "id": "node/7205568985",
   "city": "Chennai",
   "category": "diesel_fleet",
   "name": "தாம்பரம் சானடோரியம் பேருந்து நிலையம்",
   "lat": 12.937195,
   "lon": 80.127285,
   "osm_url": "https://www.openstreetmap.org/node/7205568985"
  },
  {
   "id": "node/7652446224",
   "city": "Chennai",
   "category": "diesel_fleet",
   "name": "Pattur Bus Stand",
   "lat": 13.023185,
   "lon": 80.118511,
   "osm_url": "https://www.openstreetmap.org/node/7652446224"
  },
  {
   "id": "node/7796591114",
   "city": "Chennai",
   "category": "diesel_fleet",
   "name": "Anna Nagar West",
   "lat": 13.093755,
   "lon": 80.198494,
   "osm_url": "https://www.openstreetmap.org/node/7796591114"
  },
  {
   "id": "node/7895958715",
   "city": "Chennai",
   "category": "diesel_fleet",
   "name": "Ambattur O.T",
   "lat": 13.119713,
   "lon": 80.15001,
   "osm_url": "https://www.openstreetmap.org/node/7895958715"
  },
  {
   "id": "node/8616702593",
   "city": "Chennai",
   "category": "industry",
   "name": "Citadel Fine Pharmaceuticals",
   "lat": 12.976645,
   "lon": 80.220998,
   "osm_url": "https://www.openstreetmap.org/node/8616702593"
  },
  {
   "id": "node/9331600151",
   "city": "Chennai",
   "category": "diesel_fleet",
   "name": "Anakaputhur Bus Stand",
   "lat": 12.985252,
   "lon": 80.12308,
   "osm_url": "https://www.openstreetmap.org/node/9331600151"
  },
  {
   "id": "node/9796683105",
   "city": "Chennai",
   "category": "diesel_fleet",
   "name": "Perumbakkam Bus Depot",
   "lat": 12.886663,
   "lon": 80.209688,
   "osm_url": "https://www.openstreetmap.org/node/9796683105"
  },
  {
   "id": "node/10848041900",
   "city": "Chennai",
   "category": "diesel_fleet",
   "name": "Madhavaram Mofussil Bus Terminus",
   "lat": 13.146104,
   "lon": 80.2217,
   "osm_url": "https://www.openstreetmap.org/node/10848041900"
  },
  {
   "id": "node/10848041902",
   "city": "Chennai",
   "category": "diesel_fleet",
   "name": "PERIYAPALAYAM BUS STAND",
   "lat": 13.308127,
   "lon": 80.046225,
   "osm_url": "https://www.openstreetmap.org/node/10848041902"
  },
  {
   "id": "node/10951278204",
   "city": "Chennai",
   "category": "diesel_fleet",
   "name": "Red Hills MTC Bus Terminus",
   "lat": 13.192939,
   "lon": 80.183987,
   "osm_url": "https://www.openstreetmap.org/node/10951278204"
  },
  {
   "id": "node/10951379005",
   "city": "Chennai",
   "category": "diesel_fleet",
   "name": "Red Hills Bypass Bus Stop",
   "lat": 13.196737,
   "lon": 80.181051,
   "osm_url": "https://www.openstreetmap.org/node/10951379005"
  },
  {
   "id": "node/11004539753",
   "city": "Chennai",
   "category": "industry",
   "name": "Symrise Pvt Ltd",
   "lat": 12.874066,
   "lon": 80.226446,
   "osm_url": "https://www.openstreetmap.org/node/11004539753"
  },
  {
   "id": "node/11081775012",
   "city": "Chennai",
   "category": "industry",
   "name": "Magnum Clothing Private Limited",
   "lat": 12.960552,
   "lon": 80.131765,
   "osm_url": "https://www.openstreetmap.org/node/11081775012"
  },
  {
   "id": "node/11081775013",
   "city": "Chennai",
   "category": "industry",
   "name": "Witzenmann India Private Limited",
   "lat": 12.960596,
   "lon": 80.13086,
   "osm_url": "https://www.openstreetmap.org/node/11081775013"
  },
  {
   "id": "node/11822901092",
   "city": "Chennai",
   "category": "construction",
   "name": "Kilambakkam Railway Station",
   "lat": 12.874677,
   "lon": 80.07649,
   "osm_url": "https://www.openstreetmap.org/node/11822901092"
  },
  {
   "id": "node/12458756389",
   "city": "Chennai",
   "category": "waste_burning",
   "name": "Waste Segregation DCentre",
   "lat": 13.187175,
   "lon": 80.316278,
   "osm_url": "https://www.openstreetmap.org/node/12458756389"
  },
  {
   "id": "node/12458763843",
   "city": "Chennai",
   "category": "waste_burning",
   "name": "Chennai Enviro",
   "lat": 13.180172,
   "lon": 80.307848,
   "osm_url": "https://www.openstreetmap.org/node/12458763843"
  },
  {
   "id": "node/12557371741",
   "city": "Chennai",
   "category": "waste_burning",
   "name": "Unnamed waste_burning site",
   "lat": 12.991021,
   "lon": 80.21419,
   "osm_url": "https://www.openstreetmap.org/node/12557371741"
  },
  {
   "id": "node/12557371742",
   "city": "Chennai",
   "category": "waste_burning",
   "name": "Unnamed waste_burning site",
   "lat": 12.991012,
   "lon": 80.214219,
   "osm_url": "https://www.openstreetmap.org/node/12557371742"
  },
  {
   "id": "node/13563440739",
   "city": "Chennai",
   "category": "industry",
   "name": "Eko Paper Products",
   "lat": 13.186999,
   "lon": 80.113898,
   "osm_url": "https://www.openstreetmap.org/node/13563440739"
  },
  {
   "id": "node/13955481745",
   "city": "Chennai",
   "category": "waste_burning",
   "name": "Sembakkam Zone 3 Micro Compost Centre (MCC)",
   "lat": 12.930418,
   "lon": 80.162856,
   "osm_url": "https://www.openstreetmap.org/node/13955481745"
  },
  {
   "id": "way/23186326",
   "city": "Chennai",
   "category": "industry",
   "name": "Unnamed industry site",
   "lat": 13.053091,
   "lon": 80.240156,
   "osm_url": "https://www.openstreetmap.org/way/23186326"
  },
  {
   "id": "way/23648236",
   "city": "Chennai",
   "category": "industry",
   "name": "Madras Export Processing Zone MEPZ",
   "lat": 12.942922,
   "lon": 80.121418,
   "osm_url": "https://www.openstreetmap.org/way/23648236"
  },
  {
   "id": "way/25670561",
   "city": "Chennai",
   "category": "industry",
   "name": "SIPCOT Irungattukottai",
   "lat": 12.997417,
   "lon": 80.011201,
   "osm_url": "https://www.openstreetmap.org/way/25670561"
  },
  {
   "id": "way/25850550",
   "city": "Chennai",
   "category": "construction",
   "name": "Ennore SEZ Super Critical Thermal Power Project (Vayalur)",
   "lat": 13.282382,
   "lon": 80.310264,
   "osm_url": "https://www.openstreetmap.org/way/25850550"
  },
  {
   "id": "way/27187397",
   "city": "Chennai",
   "category": "waste_burning",
   "name": "Transit Dumpyard",
   "lat": 13.052413,
   "lon": 80.24008,
   "osm_url": "https://www.openstreetmap.org/way/27187397"
  },
  {
   "id": "way/27347413",
   "city": "Chennai",
   "category": "industry",
   "name": "KK Nagar Container Freight Station",
   "lat": 13.045987,
   "lon": 80.195236,
   "osm_url": "https://www.openstreetmap.org/way/27347413"
  },
  {
   "id": "way/27347551",
   "city": "Chennai",
   "category": "industry",
   "name": "Vadapalani MTC Depot",
   "lat": 13.050389,
   "lon": 80.206662,
   "osm_url": "https://www.openstreetmap.org/way/27347551"
  },
  {
   "id": "way/27434308",
   "city": "Chennai",
   "category": "industry",
   "name": "AVM Studio",
   "lat": 13.04637,
   "lon": 80.204957,
   "osm_url": "https://www.openstreetmap.org/way/27434308"
  },
  {
   "id": "way/27768970",
   "city": "Chennai",
   "category": "industry",
   "name": "Central Medical Depot",
   "lat": 13.08176,
   "lon": 80.265279,
   "osm_url": "https://www.openstreetmap.org/way/27768970"
  },
  {
   "id": "way/27877926",
   "city": "Chennai",
   "category": "industry",
   "name": "Anna Nagar West MTC Depot",
   "lat": 13.095155,
   "lon": 80.198104,
   "osm_url": "https://www.openstreetmap.org/way/27877926"
  },
  {
   "id": "way/27954946",
   "city": "Chennai",
   "category": "industry",
   "name": "Adyar Bus Depot",
   "lat": 13.006718,
   "lon": 80.253278,
   "osm_url": "https://www.openstreetmap.org/way/27954946"
  },
  {
   "id": "way/28067383",
   "city": "Chennai",
   "category": "industry",
   "name": "Saidapet MTC Depot",
   "lat": 13.014689,
   "lon": 80.225655,
   "osm_url": "https://www.openstreetmap.org/way/28067383"
  },
  {
   "id": "way/28225364",
   "city": "Chennai",
   "category": "industry",
   "name": "Audco Ltd",
   "lat": 13.024833,
   "lon": 80.180479,
   "osm_url": "https://www.openstreetmap.org/way/28225364"
  },
  {
   "id": "way/28225370",
   "city": "Chennai",
   "category": "industry",
   "name": "Larsen & Toubro",
   "lat": 13.025811,
   "lon": 80.178504,
   "osm_url": "https://www.openstreetmap.org/way/28225370"
  },
  {
   "id": "way/28295518",
   "city": "Chennai",
   "category": "industry",
   "name": "Corporation Asphalt Plant",
   "lat": 13.074958,
   "lon": 80.251729,
   "osm_url": "https://www.openstreetmap.org/way/28295518"
  },
  {
   "id": "way/28295519",
   "city": "Chennai",
   "category": "industry",
   "name": "FCI FSD, Egmore",
   "lat": 13.074694,
   "lon": 80.2496,
   "osm_url": "https://www.openstreetmap.org/way/28295519"
  },
  {
   "id": "way/28309779",
   "city": "Chennai",
   "category": "industry",
   "name": "Unnamed industry site",
   "lat": 12.968449,
   "lon": 80.173845,
   "osm_url": "https://www.openstreetmap.org/way/28309779"
  },
  {
   "id": "way/28318932",
   "city": "Chennai",
   "category": "waste_burning",
   "name": "Unnamed waste_burning site",
   "lat": 13.040719,
   "lon": 80.275376,
   "osm_url": "https://www.openstreetmap.org/way/28318932"
  },
  {
   "id": "way/28342584",
   "city": "Chennai",
   "category": "construction",
   "name": "Former Binny Mills Site",
   "lat": 13.100237,
   "lon": 80.256869,
   "osm_url": "https://www.openstreetmap.org/way/28342584"
  },
  {
   "id": "way/28342600",
   "city": "Chennai",
   "category": "industry",
   "name": "Perambur MTC Depot",
   "lat": 13.101536,
   "lon": 80.249126,
   "osm_url": "https://www.openstreetmap.org/way/28342600"
  },
  {
   "id": "way/28342689",
   "city": "Chennai",
   "category": "waste_burning",
   "name": "Unnamed waste_burning site",
   "lat": 13.095871,
   "lon": 80.269014,
   "osm_url": "https://www.openstreetmap.org/way/28342689"
  },
  {
   "id": "way/28342737",
   "city": "Chennai",
   "category": "industry",
   "name": "Basin Bridge Gas Turbine Power Station",
   "lat": 13.098166,
   "lon": 80.269729,
   "osm_url": "https://www.openstreetmap.org/way/28342737"
  },
  {
   "id": "way/28347365",
   "city": "Chennai",
   "category": "industry",
   "name": "Integral Coach Factory Carriage Works - ICF Chennai",
   "lat": 13.105407,
   "lon": 80.225069,
   "osm_url": "https://www.openstreetmap.org/way/28347365"
  },
  {
   "id": "way/28348128",
   "city": "Chennai",
   "category": "industry",
   "name": "Integral Coach Factory",
   "lat": 13.098065,
   "lon": 80.207667,
   "osm_url": "https://www.openstreetmap.org/way/28348128"
  },
  {
   "id": "way/28350371",
   "city": "Chennai",
   "category": "industry",
   "name": "Civil Supplies Godown",
   "lat": 13.087058,
   "lon": 80.216438,
   "osm_url": "https://www.openstreetmap.org/way/28350371"
  },
  {
   "id": "way/29115480",
   "city": "Chennai",
   "category": "construction",
   "name": "Railway Quarters",
   "lat": 13.076282,
   "lon": 80.258561,
   "osm_url": "https://www.openstreetmap.org/way/29115480"
  },
  {
   "id": "way/29115918",
   "city": "Chennai",
   "category": "industry",
   "name": "Corporation of Chennai - Pudupet Depot",
   "lat": 13.070019,
   "lon": 80.26528,
   "osm_url": "https://www.openstreetmap.org/way/29115918"
  },
  {
   "id": "way/29199633",
   "city": "Chennai",
   "category": "waste_burning",
   "name": "Kodungaiyur Corporation Landfill",
   "lat": 13.134869,
   "lon": 80.269402,
   "osm_url": "https://www.openstreetmap.org/way/29199633"
  },
  {
   "id": "way/29200131",
   "city": "Chennai",
   "category": "industry",
   "name": "Manali Petro Chemicals",
   "lat": 13.151793,
   "lon": 80.272424,
   "osm_url": "https://www.openstreetmap.org/way/29200131"
  },
  {
   "id": "way/29200185",
   "city": "Chennai",
   "category": "industry",
   "name": "Indian Oil Corporation",
   "lat": 13.142086,
   "lon": 80.28073,
   "osm_url": "https://www.openstreetmap.org/way/29200185"
  },
  {
   "id": "way/29200202",
   "city": "Chennai",
   "category": "industry",
   "name": "Container Corporation of India - CONCOR",
   "lat": 13.147266,
   "lon": 80.287002,
   "osm_url": "https://www.openstreetmap.org/way/29200202"
  },
  {
   "id": "way/29200357",
   "city": "Chennai",
   "category": "industry",
   "name": "Bharath Petroleum",
   "lat": 13.125826,
   "lon": 80.282679,
   "osm_url": "https://www.openstreetmap.org/way/29200357"
  },
  {
   "id": "way/29200367",
   "city": "Chennai",
   "category": "industry",
   "name": "Hindustan Petroleum",
   "lat": 13.122892,
   "lon": 80.281285,
   "osm_url": "https://www.openstreetmap.org/way/29200367"
  },
  {
   "id": "way/29200386",
   "city": "Chennai",
   "category": "industry",
   "name": "Indian Oil",
   "lat": 13.122177,
   "lon": 80.27813,
   "osm_url": "https://www.openstreetmap.org/way/29200386"
  },
  {
   "id": "way/29200536",
   "city": "Chennai",
   "category": "industry",
   "name": "Carborundum Universal",
   "lat": 13.169905,
   "lon": 80.309006,
   "osm_url": "https://www.openstreetmap.org/way/29200536"
  },
  {
   "id": "way/29200545",
   "city": "Chennai",
   "category": "industry",
   "name": "Thiruvottiyur MTC Depot",
   "lat": 13.17224,
   "lon": 80.304556,
   "osm_url": "https://www.openstreetmap.org/way/29200545"
  },
  {
   "id": "way/29200667",
   "city": "Chennai",
   "category": "industry",
   "name": "Unnamed industry site",
   "lat": 13.184626,
   "lon": 80.299708,
   "osm_url": "https://www.openstreetmap.org/way/29200667"
  },
  {
   "id": "way/29200671",
   "city": "Chennai",
   "category": "industry",
   "name": "Unnamed industry site",
   "lat": 13.160156,
   "lon": 80.293884,
   "osm_url": "https://www.openstreetmap.org/way/29200671"
  },
  {
   "id": "way/29200915",
   "city": "Chennai",
   "category": "industry",
   "name": "Unnamed industry site",
   "lat": 13.15624,
   "lon": 80.304798,
   "osm_url": "https://www.openstreetmap.org/way/29200915"
  },
  {
   "id": "way/29200955",
   "city": "Chennai",
   "category": "industry",
   "name": "STP Container Terminal",
   "lat": 13.164013,
   "lon": 80.308092,
   "osm_url": "https://www.openstreetmap.org/way/29200955"
  },
  {
   "id": "way/29200958",
   "city": "Chennai",
   "category": "industry",
   "name": "Unnamed industry site",
   "lat": 13.164698,
   "lon": 80.306394,
   "osm_url": "https://www.openstreetmap.org/way/29200958"
  },
  {
   "id": "way/29200963",
   "city": "Chennai",
   "category": "industry",
   "name": "Ananda Industries",
   "lat": 13.166648,
   "lon": 80.3071,
   "osm_url": "https://www.openstreetmap.org/way/29200963"
  },
  {
   "id": "way/29201616",
   "city": "Chennai",
   "category": "industry",
   "name": "Unnamed industry site",
   "lat": 13.180211,
   "lon": 80.31134,
   "osm_url": "https://www.openstreetmap.org/way/29201616"
  },
  {
   "id": "way/29201694",
   "city": "Chennai",
   "category": "industry",
   "name": "Unnamed industry site",
   "lat": 13.15403,
   "lon": 80.301597,
   "osm_url": "https://www.openstreetmap.org/way/29201694"
  },
  {
   "id": "way/29201863",
   "city": "Chennai",
   "category": "industry",
   "name": "MRF Tyres",
   "lat": 13.176676,
   "lon": 80.309428,
   "osm_url": "https://www.openstreetmap.org/way/29201863"
  },
  {
   "id": "way/29201864",
   "city": "Chennai",
   "category": "industry",
   "name": "Unnamed industry site",
   "lat": 13.174625,
   "lon": 80.308843,
   "osm_url": "https://www.openstreetmap.org/way/29201864"
  },
  {
   "id": "way/29201865",
   "city": "Chennai",
   "category": "industry",
   "name": "ITC Packaging",
   "lat": 13.182918,
   "lon": 80.305251,
   "osm_url": "https://www.openstreetmap.org/way/29201865"
  },
  {
   "id": "way/29202121",
   "city": "Chennai",
   "category": "industry",
   "name": "Ennore Foundries",
   "lat": 13.211933,
   "lon": 80.321716,
   "osm_url": "https://www.openstreetmap.org/way/29202121"
  },
  {
   "id": "way/29202122",
   "city": "Chennai",
   "category": "industry",
   "name": "Ennore Foundries",
   "lat": 13.212691,
   "lon": 80.319333,
   "osm_url": "https://www.openstreetmap.org/way/29202122"
  },
  {
   "id": "way/29202225",
   "city": "Chennai",
   "category": "industry",
   "name": "EID Parry Fertilizers",
   "lat": 13.215945,
   "lon": 80.323976,
   "osm_url": "https://www.openstreetmap.org/way/29202225"
  },
  {
   "id": "way/29202311",
   "city": "Chennai",
   "category": "industry",
   "name": "Ennore MTC Depot",
   "lat": 13.215128,
   "lon": 80.320893,
   "osm_url": "https://www.openstreetmap.org/way/29202311"
  },
  {
   "id": "way/31961031",
   "city": "Chennai",
   "category": "construction",
   "name": "Unnamed construction site",
   "lat": 13.05558,
   "lon": 80.101398,
   "osm_url": "https://www.openstreetmap.org/way/31961031"
  },
  {
   "id": "way/47474046",
   "city": "Chennai",
   "category": "waste_burning",
   "name": "Unnamed waste_burning site",
   "lat": 13.050239,
   "lon": 80.272474,
   "osm_url": "https://www.openstreetmap.org/way/47474046"
  },
  {
   "id": "way/48057026",
   "city": "Chennai",
   "category": "waste_burning",
   "name": "Unnamed waste_burning site",
   "lat": 13.092792,
   "lon": 80.249188,
   "osm_url": "https://www.openstreetmap.org/way/48057026"
  },
  {
   "id": "way/54584209",
   "city": "Chennai",
   "category": "construction",
   "name": "Chitra Manikanda IT Park",
   "lat": 13.073205,
   "lon": 80.191602,
   "osm_url": "https://www.openstreetmap.org/way/54584209"
  },
  {
   "id": "way/83075001",
   "city": "Chennai",
   "category": "construction",
   "name": "Unnamed construction site",
   "lat": 13.080815,
   "lon": 80.274189,
   "osm_url": "https://www.openstreetmap.org/way/83075001"
  },
  {
   "id": "way/84106307",
   "city": "Chennai",
   "category": "waste_burning",
   "name": "Pallikaranai Dumpyard",
   "lat": 12.95456,
   "lon": 80.226886,
   "osm_url": "https://www.openstreetmap.org/way/84106307"
  },
  {
   "id": "way/113676165",
   "city": "Chennai",
   "category": "construction",
   "name": "Unnamed construction site",
   "lat": 13.036921,
   "lon": 80.212807,
   "osm_url": "https://www.openstreetmap.org/way/113676165"
  },
  {
   "id": "way/121118533",
   "city": "Chennai",
   "category": "waste_burning",
   "name": "Velachery Landfill",
   "lat": 12.958077,
   "lon": 80.212652,
   "osm_url": "https://www.openstreetmap.org/way/121118533"
  },
  {
   "id": "way/180005120",
   "city": "Chennai",
   "category": "construction",
   "name": "Unnamed construction site",
   "lat": 13.08196,
   "lon": 80.225948,
   "osm_url": "https://www.openstreetmap.org/way/180005120"
  },
  {
   "id": "way/186797306",
   "city": "Chennai",
   "category": "construction",
   "name": "Brigade Icon (u/c)",
   "lat": 13.058439,
   "lon": 80.260123,
   "osm_url": "https://www.openstreetmap.org/way/186797306"
  },
  {
   "id": "way/208597916",
   "city": "Chennai",
   "category": "construction",
   "name": "Unnamed construction site",
   "lat": 13.019782,
   "lon": 80.27444,
   "osm_url": "https://www.openstreetmap.org/way/208597916"
  },
  {
   "id": "way/208597929",
   "city": "Chennai",
   "category": "construction",
   "name": "Unnamed construction site",
   "lat": 13.016856,
   "lon": 80.272814,
   "osm_url": "https://www.openstreetmap.org/way/208597929"
  },
  {
   "id": "way/208597935",
   "city": "Chennai",
   "category": "construction",
   "name": "Unnamed construction site",
   "lat": 13.018884,
   "lon": 80.273831,
   "osm_url": "https://www.openstreetmap.org/way/208597935"
  },
  {
   "id": "way/209513246",
   "city": "Chennai",
   "category": "construction",
   "name": "Panagal Park Metro Site",
   "lat": 13.041387,
   "lon": 80.233064,
   "osm_url": "https://www.openstreetmap.org/way/209513246"
  },
  {
   "id": "way/214711613",
   "city": "Chennai",
   "category": "waste_burning",
   "name": "Unnamed waste_burning site",
   "lat": 13.072378,
   "lon": 80.265018,
   "osm_url": "https://www.openstreetmap.org/way/214711613"
  },
  {
   "id": "way/217684161",
   "city": "Chennai",
   "category": "construction",
   "name": "Unnamed construction site",
   "lat": 13.078589,
   "lon": 80.259118,
   "osm_url": "https://www.openstreetmap.org/way/217684161"
  },
  {
   "id": "way/217723245",
   "city": "Chennai",
   "category": "construction",
   "name": "Former Binny Mills Site",
   "lat": 13.101071,
   "lon": 80.253388,
   "osm_url": "https://www.openstreetmap.org/way/217723245"
  },
  {
   "id": "way/217723246",
   "city": "Chennai",
   "category": "construction",
   "name": "Former Binny Mills Site",
   "lat": 13.10271,
   "lon": 80.255047,
   "osm_url": "https://www.openstreetmap.org/way/217723246"
  },
  {
   "id": "way/217850825",
   "city": "Chennai",
   "category": "waste_burning",
   "name": "Unnamed waste_burning site",
   "lat": 13.10522,
   "lon": 80.275286,
   "osm_url": "https://www.openstreetmap.org/way/217850825"
  },
  {
   "id": "way/217860907",
   "city": "Chennai",
   "category": "construction",
   "name": "Unnamed construction site",
   "lat": 13.111283,
   "lon": 80.282878,
   "osm_url": "https://www.openstreetmap.org/way/217860907"
  },
  {
   "id": "way/217878779",
   "city": "Chennai",
   "category": "construction",
   "name": "Unnamed construction site",
   "lat": 13.106282,
   "lon": 80.257537,
   "osm_url": "https://www.openstreetmap.org/way/217878779"
  },
  {
   "id": "way/217920508",
   "city": "Chennai",
   "category": "construction",
   "name": "Unnamed construction site",
   "lat": 13.115424,
   "lon": 80.260862,
   "osm_url": "https://www.openstreetmap.org/way/217920508"
  },
  {
   "id": "way/217935588",
   "city": "Chennai",
   "category": "construction",
   "name": "Unnamed construction site",
   "lat": 13.110986,
   "lon": 80.210892,
   "osm_url": "https://www.openstreetmap.org/way/217935588"
  },
  {
   "id": "way/256668313",
   "city": "Chennai",
   "category": "construction",
   "name": "Brigade Stellaris",
   "lat": 12.991907,
   "lon": 80.218344,
   "osm_url": "https://www.openstreetmap.org/way/256668313"
  },
  {
   "id": "way/256668340",
   "city": "Chennai",
   "category": "construction",
   "name": "Upcoming Prestige Project",
   "lat": 12.9902,
   "lon": 80.219813,
   "osm_url": "https://www.openstreetmap.org/way/256668340"
  },
  {
   "id": "way/354266322",
   "city": "Chennai",
   "category": "construction",
   "name": "Unnamed construction site",
   "lat": 13.112805,
   "lon": 80.190842,
   "osm_url": "https://www.openstreetmap.org/way/354266322"
  },
  {
   "id": "way/355101663",
   "city": "Chennai",
   "category": "construction",
   "name": "RV Towers",
   "lat": 12.951971,
   "lon": 80.136102,
   "osm_url": "https://www.openstreetmap.org/way/355101663"
  },
  {
   "id": "way/355429609",
   "city": "Chennai",
   "category": "construction",
   "name": "The Nest Builders",
   "lat": 13.064577,
   "lon": 80.22252,
   "osm_url": "https://www.openstreetmap.org/way/355429609"
  },
  {
   "id": "way/383857988",
   "city": "Chennai",
   "category": "waste_burning",
   "name": "Kannadapalayam Dumpyard",
   "lat": 12.934728,
   "lon": 80.100954,
   "osm_url": "https://www.openstreetmap.org/way/383857988"
  },
  {
   "id": "way/428432226",
   "city": "Chennai",
   "category": "waste_burning",
   "name": "Unnamed waste_burning site",
   "lat": 12.955948,
   "lon": 80.043371,
   "osm_url": "https://www.openstreetmap.org/way/428432226"
  },
  {
   "id": "way/539959190",
   "city": "Chennai",
   "category": "waste_burning",
   "name": "Unnamed waste_burning site",
   "lat": 13.000253,
   "lon": 80.097408,
   "osm_url": "https://www.openstreetmap.org/way/539959190"
  },
  {
   "id": "way/657856741",
   "city": "Chennai",
   "category": "construction",
   "name": "Unnamed construction site",
   "lat": 13.076244,
   "lon": 80.240892,
   "osm_url": "https://www.openstreetmap.org/way/657856741"
  },
  {
   "id": "way/669970038",
   "city": "Chennai",
   "category": "construction",
   "name": "PWD Workshop",
   "lat": 13.104361,
   "lon": 80.28234,
   "osm_url": "https://www.openstreetmap.org/way/669970038"
  },
  {
   "id": "way/820175628",
   "city": "Chennai",
   "category": "construction",
   "name": "Jains Complex",
   "lat": 12.968516,
   "lon": 80.238886,
   "osm_url": "https://www.openstreetmap.org/way/820175628"
  },
  {
   "id": "way/1016681320",
   "city": "Chennai",
   "category": "construction",
   "name": "Olympia Cyberspace",
   "lat": 13.016797,
   "lon": 80.215345,
   "osm_url": "https://www.openstreetmap.org/way/1016681320"
  },
  {
   "id": "way/1016681321",
   "city": "Chennai",
   "category": "construction",
   "name": "Unnamed construction site",
   "lat": 13.016916,
   "lon": 80.21536,
   "osm_url": "https://www.openstreetmap.org/way/1016681321"
  },
  {
   "id": "way/1016681322",
   "city": "Chennai",
   "category": "construction",
   "name": "Unnamed construction site",
   "lat": 13.02007,
   "lon": 80.210764,
   "osm_url": "https://www.openstreetmap.org/way/1016681322"
  },
  {
   "id": "way/1016681323",
   "city": "Chennai",
   "category": "construction",
   "name": "Unnamed construction site",
   "lat": 13.020886,
   "lon": 80.210429,
   "osm_url": "https://www.openstreetmap.org/way/1016681323"
  },
  {
   "id": "way/1017185167",
   "city": "Chennai",
   "category": "waste_burning",
   "name": "Unnamed waste_burning site",
   "lat": 13.180575,
   "lon": 80.28318,
   "osm_url": "https://www.openstreetmap.org/way/1017185167"
  },
  {
   "id": "way/1060226622",
   "city": "Chennai",
   "category": "construction",
   "name": "Unnamed construction site",
   "lat": 13.216776,
   "lon": 80.172101,
   "osm_url": "https://www.openstreetmap.org/way/1060226622"
  },
  {
   "id": "way/1060258308",
   "city": "Chennai",
   "category": "construction",
   "name": "Unnamed construction site",
   "lat": 13.205814,
   "lon": 80.27289,
   "osm_url": "https://www.openstreetmap.org/way/1060258308"
  },
  {
   "id": "way/1060957721",
   "city": "Chennai",
   "category": "construction",
   "name": "Unnamed construction site",
   "lat": 13.050076,
   "lon": 80.153152,
   "osm_url": "https://www.openstreetmap.org/way/1060957721"
  },
  {
   "id": "way/1061003468",
   "city": "Chennai",
   "category": "construction",
   "name": "Unnamed construction site",
   "lat": 13.225371,
   "lon": 80.290693,
   "osm_url": "https://www.openstreetmap.org/way/1061003468"
  },
  {
   "id": "way/1063644572",
   "city": "Chennai",
   "category": "construction",
   "name": "Unnamed construction site",
   "lat": 12.955208,
   "lon": 80.167489,
   "osm_url": "https://www.openstreetmap.org/way/1063644572"
  },
  {
   "id": "way/1066918625",
   "city": "Chennai",
   "category": "construction",
   "name": "Unnamed construction site",
   "lat": 12.880891,
   "lon": 80.207792,
   "osm_url": "https://www.openstreetmap.org/way/1066918625"
  },
  {
   "id": "way/1066918626",
   "city": "Chennai",
   "category": "construction",
   "name": "Unnamed construction site",
   "lat": 12.8808,
   "lon": 80.209247,
   "osm_url": "https://www.openstreetmap.org/way/1066918626"
  },
  {
   "id": "way/1066918627",
   "city": "Chennai",
   "category": "construction",
   "name": "Unnamed construction site",
   "lat": 12.880587,
   "lon": 80.209848,
   "osm_url": "https://www.openstreetmap.org/way/1066918627"
  },
  {
   "id": "way/1066918666",
   "city": "Chennai",
   "category": "construction",
   "name": "Unnamed construction site",
   "lat": 12.88225,
   "lon": 80.208852,
   "osm_url": "https://www.openstreetmap.org/way/1066918666"
  },
  {
   "id": "way/1074518593",
   "city": "Chennai",
   "category": "construction",
   "name": "Market of India",
   "lat": 13.103206,
   "lon": 80.255026,
   "osm_url": "https://www.openstreetmap.org/way/1074518593"
  },
  {
   "id": "way/1080301441",
   "city": "Chennai",
   "category": "construction",
   "name": "Unnamed construction site",
   "lat": 13.014319,
   "lon": 80.167593,
   "osm_url": "https://www.openstreetmap.org/way/1080301441"
  },
  {
   "id": "way/1080616303",
   "city": "Chennai",
   "category": "construction",
   "name": "Muthamizh Arignar Kalaignar M. Karunanidhi Memorial",
   "lat": 13.06542,
   "lon": 80.286107,
   "osm_url": "https://www.openstreetmap.org/way/1080616303"
  },
  {
   "id": "way/1081242034",
   "city": "Chennai",
   "category": "construction",
   "name": "Light House Metro",
   "lat": 13.043203,
   "lon": 80.280048,
   "osm_url": "https://www.openstreetmap.org/way/1081242034"
  },
  {
   "id": "way/1089789107",
   "city": "Chennai",
   "category": "construction",
   "name": "Unnamed construction site",
   "lat": 13.092004,
   "lon": 80.290102,
   "osm_url": "https://www.openstreetmap.org/way/1089789107"
  },
  {
   "id": "way/1089831754",
   "city": "Chennai",
   "category": "construction",
   "name": "Unnamed construction site",
   "lat": 13.069136,
   "lon": 80.287045,
   "osm_url": "https://www.openstreetmap.org/way/1089831754"
  },
  {
   "id": "way/1090016321",
   "city": "Chennai",
   "category": "construction",
   "name": "Unnamed construction site",
   "lat": 13.092993,
   "lon": 80.290905,
   "osm_url": "https://www.openstreetmap.org/way/1090016321"
  },
  {
   "id": "way/1091014273",
   "city": "Chennai",
   "category": "construction",
   "name": "Amalfi",
   "lat": 12.833727,
   "lon": 80.23379,
   "osm_url": "https://www.openstreetmap.org/way/1091014273"
  },
  {
   "id": "way/1091014274",
   "city": "Chennai",
   "category": "construction",
   "name": "Anchorage",
   "lat": 12.833418,
   "lon": 80.23436,
   "osm_url": "https://www.openstreetmap.org/way/1091014274"
  },
  {
   "id": "way/1095898104",
   "city": "Chennai",
   "category": "construction",
   "name": "Unnamed construction site",
   "lat": 12.840314,
   "lon": 80.22807,
   "osm_url": "https://www.openstreetmap.org/way/1095898104"
  },
  {
   "id": "way/1104042809",
   "city": "Chennai",
   "category": "construction",
   "name": "Unnamed construction site",
   "lat": 13.09492,
   "lon": 80.28644,
   "osm_url": "https://www.openstreetmap.org/way/1104042809"
  },
  {
   "id": "way/1104053842",
   "city": "Chennai",
   "category": "construction",
   "name": "Unnamed construction site",
   "lat": 13.09436,
   "lon": 80.286859,
   "osm_url": "https://www.openstreetmap.org/way/1104053842"
  },
  {
   "id": "way/1105452634",
   "city": "Chennai",
   "category": "construction",
   "name": "Unnamed construction site",
   "lat": 13.095648,
   "lon": 80.287305,
   "osm_url": "https://www.openstreetmap.org/way/1105452634"
  },
  {
   "id": "way/1110183922",
   "city": "Chennai",
   "category": "construction",
   "name": "Unnamed construction site",
   "lat": 13.097543,
   "lon": 80.286879,
   "osm_url": "https://www.openstreetmap.org/way/1110183922"
  },
  {
   "id": "way/1115399774",
   "city": "Chennai",
   "category": "construction",
   "name": "Unnamed construction site",
   "lat": 13.055936,
   "lon": 80.257229,
   "osm_url": "https://www.openstreetmap.org/way/1115399774"
  },
  {
   "id": "way/1115404555",
   "city": "Chennai",
   "category": "construction",
   "name": "Unnamed construction site",
   "lat": 13.019577,
   "lon": 80.262266,
   "osm_url": "https://www.openstreetmap.org/way/1115404555"
  },
  {
   "id": "way/1115505195",
   "city": "Chennai",
   "category": "construction",
   "name": "Brigade World Trade Center",
   "lat": 12.960413,
   "lon": 80.244229,
   "osm_url": "https://www.openstreetmap.org/way/1115505195"
  },
  {
   "id": "way/1115829518",
   "city": "Chennai",
   "category": "construction",
   "name": "Unnamed construction site",
   "lat": 13.09793,
   "lon": 80.287306,
   "osm_url": "https://www.openstreetmap.org/way/1115829518"
  },
  {
   "id": "way/1236765218",
   "city": "Chennai",
   "category": "waste_burning",
   "name": "Kundrathur Landfill",
   "lat": 12.993332,
   "lon": 80.088525,
   "osm_url": "https://www.openstreetmap.org/way/1236765218"
  },
  {
   "id": "way/1237138907",
   "city": "Chennai",
   "category": "waste_burning",
   "name": "Unnamed waste_burning site",
   "lat": 12.892255,
   "lon": 80.155025,
   "osm_url": "https://www.openstreetmap.org/way/1237138907"
  },
  {
   "id": "way/1508224692",
   "city": "Chennai",
   "category": "waste_burning",
   "name": "Unnamed waste_burning site",
   "lat": 13.081103,
   "lon": 80.219576,
   "osm_url": "https://www.openstreetmap.org/way/1508224692"
  },
  {
   "id": "node/5284057222",
   "city": "Kanpur",
   "category": "diesel_fleet",
   "name": "Unnamed diesel_fleet site",
   "lat": 26.46231,
   "lon": 80.308515,
   "osm_url": "https://www.openstreetmap.org/node/5284057222"
  },
  {
   "id": "node/10542618526",
   "city": "Kanpur",
   "category": "industry",
   "name": "Mars auto PVT. LTD.",
   "lat": 26.453669,
   "lon": 80.283962,
   "osm_url": "https://www.openstreetmap.org/node/10542618526"
  },
  {
   "id": "node/10824050401",
   "city": "Kanpur",
   "category": "industry",
   "name": "Sharp Incorporation",
   "lat": 26.482262,
   "lon": 80.337601,
   "osm_url": "https://www.openstreetmap.org/node/10824050401"
  },
  {
   "id": "way/45059289",
   "city": "Kanpur",
   "category": "industry",
   "name": "Ordinance Equipment Factory",
   "lat": 26.470938,
   "lon": 80.365463,
   "osm_url": "https://www.openstreetmap.org/way/45059289"
  },
  {
   "id": "way/147228470",
   "city": "Kanpur",
   "category": "industry",
   "name": "Unnamed industry site",
   "lat": 26.56316,
   "lon": 80.526458,
   "osm_url": "https://www.openstreetmap.org/way/147228470"
  },
  {
   "id": "way/148465218",
   "city": "Kanpur",
   "category": "industry",
   "name": "ICD CONCOR Kanpur",
   "lat": 26.455309,
   "lon": 80.306236,
   "osm_url": "https://www.openstreetmap.org/way/148465218"
  },
  {
   "id": "way/148465221",
   "city": "Kanpur",
   "category": "industry",
   "name": "Unnamed industry site",
   "lat": 26.454671,
   "lon": 80.24555,
   "osm_url": "https://www.openstreetmap.org/way/148465221"
  },
  {
   "id": "way/148465222",
   "city": "Kanpur",
   "category": "industry",
   "name": "Unnamed industry site",
   "lat": 26.450123,
   "lon": 80.263852,
   "osm_url": "https://www.openstreetmap.org/way/148465222"
  },
  {
   "id": "way/148465227",
   "city": "Kanpur",
   "category": "industry",
   "name": "Unnamed industry site",
   "lat": 26.455509,
   "lon": 80.239652,
   "osm_url": "https://www.openstreetmap.org/way/148465227"
  },
  {
   "id": "way/148465231",
   "city": "Kanpur",
   "category": "industry",
   "name": "Unnamed industry site",
   "lat": 26.447922,
   "lon": 80.274337,
   "osm_url": "https://www.openstreetmap.org/way/148465231"
  },
  {
   "id": "way/148465234",
   "city": "Kanpur",
   "category": "industry",
   "name": "Unnamed industry site",
   "lat": 26.44339,
   "lon": 80.252939,
   "osm_url": "https://www.openstreetmap.org/way/148465234"
  },
  {
   "id": "way/148465235",
   "city": "Kanpur",
   "category": "industry",
   "name": "Unnamed industry site",
   "lat": 26.459104,
   "lon": 80.309462,
   "osm_url": "https://www.openstreetmap.org/way/148465235"
  },
  {
   "id": "way/148465244",
   "city": "Kanpur",
   "category": "industry",
   "name": "Unnamed industry site",
   "lat": 26.451114,
   "lon": 80.257234,
   "osm_url": "https://www.openstreetmap.org/way/148465244"
  },
  {
   "id": "way/148465246",
   "city": "Kanpur",
   "category": "industry",
   "name": "Unnamed industry site",
   "lat": 26.458804,
   "lon": 80.279241,
   "osm_url": "https://www.openstreetmap.org/way/148465246"
  },
  {
   "id": "way/148465250",
   "city": "Kanpur",
   "category": "industry",
   "name": "Unnamed industry site",
   "lat": 26.465456,
   "lon": 80.281188,
   "osm_url": "https://www.openstreetmap.org/way/148465250"
  },
  {
   "id": "way/148465251",
   "city": "Kanpur",
   "category": "industry",
   "name": "Unnamed industry site",
   "lat": 26.458977,
   "lon": 80.258325,
   "osm_url": "https://www.openstreetmap.org/way/148465251"
  },
  {
   "id": "way/148465252",
   "city": "Kanpur",
   "category": "industry",
   "name": "Unnamed industry site",
   "lat": 26.453407,
   "lon": 80.281679,
   "osm_url": "https://www.openstreetmap.org/way/148465252"
  },
  {
   "id": "way/206134072",
   "city": "Kanpur",
   "category": "industry",
   "name": "Unnamed industry site",
   "lat": 26.510102,
   "lon": 80.421019,
   "osm_url": "https://www.openstreetmap.org/way/206134072"
  },
  {
   "id": "way/206134074",
   "city": "Kanpur",
   "category": "industry",
   "name": "Unnamed industry site",
   "lat": 26.527421,
   "lon": 80.449936,
   "osm_url": "https://www.openstreetmap.org/way/206134074"
  },
  {
   "id": "way/206134076",
   "city": "Kanpur",
   "category": "industry",
   "name": "Unnamed industry site",
   "lat": 26.486073,
   "lon": 80.463172,
   "osm_url": "https://www.openstreetmap.org/way/206134076"
  },
  {
   "id": "way/310230368",
   "city": "Kanpur",
   "category": "industry",
   "name": "Indian Oil Coorporation",
   "lat": 26.462458,
   "lon": 80.254563,
   "osm_url": "https://www.openstreetmap.org/way/310230368"
  },
  {
   "id": "way/310313886",
   "city": "Kanpur",
   "category": "industry",
   "name": "Panki Thermal Power Station",
   "lat": 26.47641,
   "lon": 80.240991,
   "osm_url": "https://www.openstreetmap.org/way/310313886"
  },
  {
   "id": "way/454982486",
   "city": "Kanpur",
   "category": "industry",
   "name": "Unnamed industry site",
   "lat": 26.41882,
   "lon": 80.108687,
   "osm_url": "https://www.openstreetmap.org/way/454982486"
  },
  {
   "id": "way/506689492",
   "city": "Kanpur",
   "category": "industry",
   "name": "Unnamed industry site",
   "lat": 26.459285,
   "lon": 80.218483,
   "osm_url": "https://www.openstreetmap.org/way/506689492"
  },
  {
   "id": "way/506689493",
   "city": "Kanpur",
   "category": "waste_burning",
   "name": "Municipal Landfill",
   "lat": 26.446416,
   "lon": 80.229619,
   "osm_url": "https://www.openstreetmap.org/way/506689493"
  },
  {
   "id": "way/506689494",
   "city": "Kanpur",
   "category": "waste_burning",
   "name": "Municipal Landfill",
   "lat": 26.449087,
   "lon": 80.233707,
   "osm_url": "https://www.openstreetmap.org/way/506689494"
  },
  {
   "id": "way/506689503",
   "city": "Kanpur",
   "category": "diesel_fleet",
   "name": "Jhakarkati Bus Stand",
   "lat": 26.45046,
   "lon": 80.340235,
   "osm_url": "https://www.openstreetmap.org/way/506689503"
  },
  {
   "id": "way/550518363",
   "city": "Kanpur",
   "category": "industry",
   "name": "Unnamed industry site",
   "lat": 26.461218,
   "lon": 80.191447,
   "osm_url": "https://www.openstreetmap.org/way/550518363"
  },
  {
   "id": "way/666188125",
   "city": "Kanpur",
   "category": "industry",
   "name": "Unnamed industry site",
   "lat": 26.375996,
   "lon": 80.109896,
   "osm_url": "https://www.openstreetmap.org/way/666188125"
  },
  {
   "id": "way/754292566",
   "city": "Kanpur",
   "category": "industry",
   "name": "Unnamed industry site",
   "lat": 26.490078,
   "lon": 80.470933,
   "osm_url": "https://www.openstreetmap.org/way/754292566"
  },
  {
   "id": "way/754336202",
   "city": "Kanpur",
   "category": "industry",
   "name": "Unnamed industry site",
   "lat": 26.46304,
   "lon": 80.443256,
   "osm_url": "https://www.openstreetmap.org/way/754336202"
  },
  {
   "id": "way/754336211",
   "city": "Kanpur",
   "category": "industry",
   "name": "Unnamed industry site",
   "lat": 26.463041,
   "lon": 80.444685,
   "osm_url": "https://www.openstreetmap.org/way/754336211"
  },
  {
   "id": "way/754336216",
   "city": "Kanpur",
   "category": "industry",
   "name": "Unnamed industry site",
   "lat": 26.464662,
   "lon": 80.445733,
   "osm_url": "https://www.openstreetmap.org/way/754336216"
  },
  {
   "id": "way/754336234",
   "city": "Kanpur",
   "category": "industry",
   "name": "Unnamed industry site",
   "lat": 26.456824,
   "lon": 80.441857,
   "osm_url": "https://www.openstreetmap.org/way/754336234"
  },
  {
   "id": "way/755217256",
   "city": "Kanpur",
   "category": "industry",
   "name": "Unnamed industry site",
   "lat": 26.592254,
   "lon": 80.216879,
   "osm_url": "https://www.openstreetmap.org/way/755217256"
  },
  {
   "id": "way/756115109",
   "city": "Kanpur",
   "category": "diesel_fleet",
   "name": "Unnamed diesel_fleet site",
   "lat": 26.458412,
   "lon": 80.24516,
   "osm_url": "https://www.openstreetmap.org/way/756115109"
  },
  {
   "id": "way/756251749",
   "city": "Kanpur",
   "category": "industry",
   "name": "Unnamed industry site",
   "lat": 26.580371,
   "lon": 80.221294,
   "osm_url": "https://www.openstreetmap.org/way/756251749"
  },
  {
   "id": "way/756251751",
   "city": "Kanpur",
   "category": "industry",
   "name": "Unnamed industry site",
   "lat": 26.610196,
   "lon": 80.205272,
   "osm_url": "https://www.openstreetmap.org/way/756251751"
  },
  {
   "id": "way/756251773",
   "city": "Kanpur",
   "category": "industry",
   "name": "Unnamed industry site",
   "lat": 26.606016,
   "lon": 80.209314,
   "osm_url": "https://www.openstreetmap.org/way/756251773"
  },
  {
   "id": "way/757334073",
   "city": "Kanpur",
   "category": "industry",
   "name": "Unnamed industry site",
   "lat": 26.436974,
   "lon": 80.182906,
   "osm_url": "https://www.openstreetmap.org/way/757334073"
  },
  {
   "id": "way/903554647",
   "city": "Kanpur",
   "category": "industry",
   "name": "Unnamed industry site",
   "lat": 26.426542,
   "lon": 80.358373,
   "osm_url": "https://www.openstreetmap.org/way/903554647"
  },
  {
   "id": "way/907915794",
   "city": "Kanpur",
   "category": "construction",
   "name": "Unnamed construction site",
   "lat": 26.439716,
   "lon": 80.347179,
   "osm_url": "https://www.openstreetmap.org/way/907915794"
  },
  {
   "id": "way/910143411",
   "city": "Kanpur",
   "category": "industry",
   "name": "Unnamed industry site",
   "lat": 26.391411,
   "lon": 80.30884,
   "osm_url": "https://www.openstreetmap.org/way/910143411"
  },
  {
   "id": "way/912027487",
   "city": "Kanpur",
   "category": "diesel_fleet",
   "name": "Kanpur Airport KNU Departure",
   "lat": 26.438838,
   "lon": 80.36754,
   "osm_url": "https://www.openstreetmap.org/way/912027487"
  },